     2.11           OBSERVATION DATA    M                   RINEX VERSION / TYPE
sbf2rin-15.6.1                          27-JAN-24 14:21     PGM / RUN BY / DATE 
-S                                                          COMMENT             
SEPT                                                        MARKER NAME         
Unknown                                                     MARKER NUMBER       
Unknown             Unknown                                 OBSERVER / AGENCY   
3606818             SEPT MOSAIC-X5      4.8.0               REC # / TYPE / VERS 
Unknown             Unknown                                 ANT # / TYPE        
  -881174.2490  5986607.0266  2010762.8151                  APPROX POSITION XYZ 
        0.0000        0.0000        0.0000                  ANTENNA: DELTA H/E/N
     1     1                                                WAVELENGTH FACT L1/2
     9    C1    L1    L2    P2    C2    C5    L5    C7    L7# / TYPES OF OBSERV 
For GPS, L2 corresponds to the L2P carrier phase.           COMMENT             
For GLONASS, L2 corresponds to the L2CA carrier phase.      COMMENT             
     1.000                                                  INTERVAL            
  2024     1    21    14    45    0.0000000     GPS         TIME OF FIRST OBS   
  2024     1    21    14    59   59.0000000     GPS         TIME OF LAST OBS    
    25                                                      # OF SATELLITES     
    18                                                      LEAP SECONDS        
                                                            END OF HEADER       
 24  1 21 14 45  0.0000000  0 24G20G13E05G11G12E15G05G17R11G22G06R10
                                E03E27E08E30R20G19R06R05E02R09R21E34
  20155448.374 7 105917741.40107  82533398.93307  20155450.402 7

  24369352.034 6 128061816.29006  99788447.72603  24369349.940 3

  24788004.152 6 130261807.10906
  24788016.570 7  97273456.38707  24788013.931 7  99811007.97707
  21718740.380 7 114132903.76807  88934827.64505  21718745.467 5  21718745.589 7

  21509603.736 8 113033780.20108  88078303.64309  21509609.133 9  21509609.691 7

  25154599.970 6 132188388.87106
  25154612.454 7  98712266.01607  25154609.621 7 101287334.31907
  21526327.331 7 113121624.63307  88146760.32308  21526331.833 8  21526332.776 7

  23405979.021 6 122999359.48906  95843734.66307  23405985.502 7  23405985.668 7

  22019046.528 7 117663105.11107  91515803.56207                  22019059.658 7

  23727695.203 6 124690036.41106  97161154.42704  23727693.945 4

  22645168.891 6 119001326.98806  92728419.37607  22645175.804 7  22645177.200 7

  21286848.391 7 113470878.14907

  25813870.022 7 135652823.60007
  25813877.826 7 101299406.31907  25813875.114 7 103941931.15607
  26191351.240 5 137636504.02705
  26191364.478 5 102780553.04205  26191361.044 5 105461766.46305
  28061356.069 5 147463462.15605
  28061362.009 5 110118871.29005  28061361.482 6 112991524.02906
  23962757.521 8 125925201.20508
  23962766.215 8  94035137.37408  23962763.794 8  96488215.43008
  21776964.730 5 116451350.04705  90573392.00206                  21776976.264 6

  21675728.379 7 113906854.69807  88758660.65606  21675732.400 6

  20646584.455 7 110174159.02807

  20780096.959 8 111081614.65908  86396854.47108                  20780107.994 8

  25502438.046 6 134016412.05806
  25502441.541 7 100077345.94107  25502439.378 8 102688029.82408
  22973242.195 6 122675937.64806  95414787.70908                  22973250.373 8

                                                                  22624374.475 5

  25179603.409 7 132319880.05207
  25179613.449 7  98810446.93707  25179610.901 7 101388082.62607
 24  1 21 14 45  1.0000000  0 24G20G13E05G11G12E15G05G17R11G22G06R10
                                E03E27E08E30R20G19R06R05E02R09R21E34
  20155514.377 7 105918088.07907  82533669.10207  20155516.367 7

  24368879.649 6 128059332.56806  99786512.35603  24368877.298 3

  24787911.599 6 130261320.62006
  24787923.981 7  97273093.09007  24787921.379 7  99810635.21107
  21718888.249 7 114133680.47807  88935432.88105  21718893.281 5  21718893.438 7

  21509394.615 7 113032681.24307  88077447.31609  21509400.004 9  21509400.624 7

  25154605.203 6 132188416.64906
  25154617.717 7  98712286.76107  25154614.881 7 101287355.60907
  21525886.554 7 113119307.93707  88144955.10208  21525890.984 8  21525891.910 7

  23406315.583 6 123001127.91706  95845112.66507  23406322.027 7  23406322.237 7

  22018938.840 7 117662530.81207  91515356.88007                  22018952.031 7

  23728351.537 6 124693484.84706  97163841.51304  23728350.209 4

  22645471.202 6 119002914.81506  92729656.64607  22645478.019 7  22645479.346 7

  21287338.319 7 113473490.39407

  25813487.365 7 135650813.00007
  25813495.191 7 101297904.88607  25813492.516 7 103940390.55607
  26191038.866 5 137634862.49105
  26191052.057 5 102779327.27005  26191048.632 5 105460508.67305
  28060947.089 5 147461313.16405
  28060953.198 5 110117266.53505  28060952.488 7 112989877.41307
  23962910.537 8 125926005.10508
  23962919.167 8  94035737.69208  23962916.768 8  96488831.41208
  21777003.063 5 116451553.64405  90573550.35606                  21777014.136 6

  21675972.899 7 113908139.76307  88759662.00706  21675976.976 6

  20646003.179 7 110171056.94207

  20780308.083 8 111082743.58008  86397732.52408                  20780319.218 8

  25502967.092 7 134019192.31807
  25502970.510 7 100079422.00107  25502968.339 8 102690160.02708
  22973951.685 6 122679726.61606  95417734.69807                  22973959.785 7

                                  94162900.12515                  22624178.246 5

  25179791.863 7 132320870.86207
  25179802.012 7  98811186.83107  25179799.470 7 101388841.82607
 24  1 21 14 45  2.0000000  0 24G20G13E05G11G12E15G05G17R11G22G06R10
                                E03E27E08E30R20G19R06R05E02R09R21E34
  20155580.435 7 105918435.54507  82533939.88007  20155582.476 7

  24368407.158 6 128056848.82206  99784576.97403  24368404.666 3

  24787819.101 6 130260834.67406
  24787831.520 7  97272730.22707  24787828.821 7  99810262.87107
  21719036.065 7 114134457.42907  88936038.30005  21719041.113 5  21719041.320 7

  21509185.653 7 113031583.11407  88076591.63609  21509191.036 9  21509191.641 7

  25154610.494 6 132188444.63606
  25154623.027 7  98712307.66907  25154620.209 7 101287377.06307
  21525445.848 7 113116991.90807  88143150.40408  21525450.266 8  21525451.277 7

  23406652.179 6 123002896.88406  95846491.08207  23406658.656 7  23406659.058 7

  22018831.626 7 117661957.47707  91514910.95707                  22018844.774 7

  23729007.839 6 124696933.58106  97166528.84004  23729006.518 4

  22645773.440 6 119004502.77506  92730894.02007  22645780.265 7  22645781.610 7

  21287828.487 7 113476103.28907

  25813104.812 7 135648802.68007
  25813112.662 7 101296403.67107  25813109.996 7 103938850.17407
  26190726.599 5 137633221.53505
  26190739.679 5 102778101.88205  26190736.364 5 105459251.31305
  28060538.158 5 147459164.14105
  28060544.363 6 110115661.76306  28060543.619 7 112988230.78807
  23963063.649 8 125926809.65708
  23963072.276 8  94036338.48708  23963069.868 8  96489447.87708
  21777040.958 5 116451757.35205  90573708.79206                  21777052.384 6

  21676217.553 7 113909425.42007  88760663.81506  21676221.668 6

  20645421.862 7 110167955.54807

  20780519.457 8 111083873.52908  86398611.37208                  20780530.596 8

  25503496.270 7 134021972.89907
  25503499.603 7 100081498.37407  25503497.411 7 102692290.58607
  22974661.678 6 122683515.67806  95420681.74707                  22974669.347 7

                                                                  22623981.949 5

  25179980.415 7 132321861.79307
  25179990.547 7  98811926.80707  25179988.050 7 101389601.10607
 24  1 21 14 45  3.0000000  0 24G20G13E05G11G12E15G05G17R11G22G06R10
                                E03E27E08E30R20G19R06R05E02R09R21E34
  20155646.625 8 105918783.64708  82534211.12907  20155648.710 7

  24367934.694 6 128054365.01806  99782641.55203  24367932.015 3

  24787726.648 6 130260349.27106
  24787739.152 7  97272367.76307  24787736.449 7  99809890.96007
  21719184.022 7 114135234.60807  88936643.89705  21719188.985 5  21719189.357 7

  21508976.854 7 113030485.80907  88075736.60009  21508982.229 9  21508982.755 7

  25154615.891 6 132188472.83006
  25154628.323 7  98712328.73307  25154625.548 7 101287398.67707
  21525005.255 7 113114676.53807  88141346.21908  21525009.672 8  21525010.702 7

  23406988.752 6 123004666.37206  95847869.90907  23406995.387 7  23406995.906 7

  22018724.694 7 117661385.13107  91514465.78607                  22018737.672 7

  23729664.071 6 124700382.61706  97169216.39804  23729662.863 4

  22646075.801 6 119006090.84406  92732131.47907  22646082.524 7  22646083.813 7

  21288318.675 7 113478716.81707

  25812722.239 7 135646792.60407
  25812730.115 7 101294902.62107  25812727.488 7 103937309.97807
  26190414.422 5 137631581.11805
  26190427.503 5 102776876.87205  26190424.230 5 105457994.36005
  28060129.019 5 147457015.11505
  28060135.443 6 110114056.99206  28060134.673 7 112986584.13807
  23963216.897 8 125927614.83108
  23963225.533 8  94036939.75608  23963223.085 8  96490064.83308
  21777079.626 5 116451961.16005  90573867.29806                  21777090.462 6

  21676462.433 7 113910711.64907  88761666.07106  21676466.462 6

  20644840.873 7 110164854.83107

  20780731.231 8 111085004.50408  86399491.03008                  20780742.328 8

  25504025.443 6 134024753.82706
  25504028.826 6 100083575.14106  25504026.618 6 102694421.42006
  22975371.180 6 122687304.84206  95423628.87507                  22975378.940 7

  22623778.407 4                                                  22623786.302 5

  25180168.911 7 132322852.80907
  25180179.118 7  98812666.85307  25180176.629 7 101390360.47007
 24  1 21 14 45  4.0000000  0 24G20G13E05G11G12E15G05G17R11G22G06R10
                                E03E27E08E30R20G19R06R05E02R09R21E34
  20155712.935 7 105919132.09307  82534482.63707  20155715.001 7

  24367461.946 6 128051880.84906  99780705.84003  24367459.262 3

  24787634.259 6 130259864.10206
  24787646.835 7  97272005.46407  24787644.093 7  99809519.20807
  21719331.833 7 114136011.70907  88937249.43405  21719336.844 5  21719337.235 7

  21508768.195 7 113029388.99507  88074881.94309  21508773.516 9  21508774.011 7

  25154621.255 6 132188500.90606
  25154633.675 7  98712349.71107  25154630.867 7 101287420.19607
  21524564.748 7 113112361.52107  88139542.31008  21524569.155 8  21524570.123 7

  23407325.529 6 123006436.04906  95849248.88207  23407332.153 7  23407332.599 7

  22018617.700 7 117660813.38407  91514021.08307                  22018630.774 7

  23730320.439 6 124703831.62106  97171903.93404  23730319.177 4

  22646377.810 6 119007678.71106  92733368.78007  22646384.743 7  22646386.038 7

  21288809.009 7 113481330.64407

  25812339.592 7 135644782.47307
  25812347.658 7 101293401.54907  25812344.997 7 103935769.74007
  26190102.187 5 137629940.93905
  26190115.479 5 102775652.06905  26190112.040 5 105456737.61105
  28059719.996 5 147454865.73005
  28059726.429 6 110112451.91506  28059725.680 7 112984937.19907
  23963370.173 8 125928420.31708
  23963378.817 8  94037541.24908  23963376.368 8  96490682.01908
  21777118.220 5 116452164.72805  90574025.64006                  21777128.633 6

  21676707.217 7 113911998.12607  88762668.51906  21676711.310 6

  20644259.890 7 110161754.44007

  20780943.119 8 111086136.19508  86400371.22708                  20780954.068 8

  25504554.765 6 134027534.87306
  25504557.817 5 100085651.85005  25504555.924 6 102696552.41806
  22976080.550 7 122691093.77907  95426575.81907                  22976088.328 7

  22623583.163 4                                                  22623591.917 5

  25180357.384 7 132323843.60907
  25180367.706 7  98813406.74707  25180365.165 7 101391119.64907
 24  1 21 14 45  5.0000000  0 24G20G13E05G11G12E15G05G17R11G22G06R10
                                E03E27E08E30R20G19R06R05E02R09R21E34
  20155779.204 7 105919480.86407  82534754.35507  20155781.351 7

  24366989.065 6 128049396.29306  99778769.82403  24366986.428 3

  24787541.955 6 130259379.10606
  24787554.543 7  97271643.31007  24787551.781 7  99809147.60007
  21719479.613 7 114136788.68207  88937854.87205  21719484.689 5  21719485.154 7

  21508559.581 7 113028292.65207  88074027.65409  21508564.897 9  21508565.483 7

  25154626.589 6 132188528.83806
  25154638.985 7  98712370.56807  25154636.169 7 101287441.60007
  21524124.219 7 113110046.80307  88137738.63208  21524128.691 8  21524129.633 7

  23407662.205 6 123008205.87406  95850627.97407  23407668.947 7  23407669.191 7

  22018510.847 7 117660242.23807  91513576.87207                  22018524.072 7

  23730976.803 6 124707280.55806  97174591.41804  23730975.495 4

  22646679.858 6 119009266.33406  92734605.89207  22646686.918 7  22646688.161 7

  21289299.304 7 113483944.77807

  25811956.990 7 135642772.27107
  25811965.157 7 101291900.41707  25811962.458 7 103934229.45107
  26189790.066 5 137628300.93905
  26189803.431 5 102774427.41105  26189799.873 5 105455480.99705
  28059310.869 5 147452715.97105
  28059317.444 6 110110846.56406  28059316.595 7 112983289.97607
  23963523.486 8 125929226.08508
  23963532.136 8  94038142.95508  23963529.665 8  96491299.42008
  21777156.012 5 116452368.03505  90574183.78406                  21777166.499 6

  21676952.051 7 113913284.84107  88763671.15206  21676956.190 6

  20643678.883 7 110158654.39207

  20781155.105 8 111087268.55308  86401251.95208                  20781165.929 8

  25505084.020 7 134030315.98907
  25505087.139 7 100087728.63307  25505085.222 8 102698683.36408
  22976790.127 7 122694882.45807  95429522.56508                  22976797.854 8

  22623390.230 4                                                  22623396.913 5

  25180545.845 7 132324834.15007
  25180556.223 7  98814146.44407  25180553.644 7 101391878.64407
 24  1 21 14 45  6.0000000  0 24G20G13E05G11G12E15G05G17R11G22G06R10
                                E03E27E08E30R20G19R06R05E02R09R21E34
  20155845.531 7 105919829.66807  82535026.09607  20155847.706 7

  24366516.206 6 128046911.01906  99776833.25703  24366513.518 3

  24787449.587 6 130258893.98006
  24787462.231 7  97271281.03607  24787459.432 7  99808775.88107
  21719627.434 7 114137565.22707  88938459.97305  21719632.445 5  21719633.120 7

  21508350.963 7 113027196.45407  88073173.47809  21508356.305 9  21508356.970 7

  25154631.813 6 132188556.28306
  25154644.193 7  98712391.07107  25154641.392 7 101287462.64107
  21523683.704 7 113107732.07707  88135934.95008  21523688.232 8  21523689.217 7

  23407998.882 6 123009975.56006  95852006.95707  23408005.714 7  23408005.754 7

  22018403.983 7 117659671.38707  91513132.85607                  22018417.301 7

  23731633.033 6 124710729.08706  97177278.58604  23731631.750 4

  22646981.811 6 119010853.39606  92735842.56807  22646988.980 7  22646990.041 7

  21289789.696 7 113486558.85207

  25811574.435 7 135640761.63807
  25811582.570 7 101290398.96507  25811579.854 7 103932688.83207
  26189477.991 5 137626660.83905
  26189491.350 5 102773202.65605  26189487.658 5 105454224.31205
  28058901.750 5 147450565.46005
  28058908.252 6 110109240.69206  28058907.440 7 112981642.20507
  23963676.808 8 125930031.80408
  23963685.446 8  94038744.63208  23963682.970 8  96491916.78708
  21777193.088 5 116452570.75805  90574341.47206                  21777204.561 6

  21677196.896 7 113914571.43707  88764673.69206  21677201.060 6

  20643098.078 7 110155554.34907

  20781367.048 8 111088401.24408  86402132.93508                  20781377.891 8

  25505613.185 6 134033096.72506
  25505616.340 7 100089805.24807  25505614.402 8 102700814.14108
  22977499.594 7 122698670.55207  95432468.86207                  22977507.227 7

  22623197.007 4                                                  22623202.645 5

  25180734.233 7 132325824.11107
  25180744.592 7  98814885.70207  25180742.005 8 101392637.19008
 24  1 21 14 45  7.0000000  0 24G20G13E05G11G12E15G05G17R11G22G06R10
                                E03E27E08E30R20G19R06R05E02R09R21E34
  20155912.032 7 105920178.98007  82535298.22107  20155914.163 7

  24366043.105 6 128044425.47806  99774896.47103  24366040.456 3

  24787357.313 6 130258409.16406
  24787369.949 7  97270919.00607  24787367.159 7  99808404.40607
  21719775.066 7 114138341.75707  88939065.06705  21719780.214 5  21719780.830 7

  21508142.515 7 113026100.85107  88072319.76809  21508147.829 9  21508148.495 7

  25154637.022 6 132188583.71106
  25154649.358 7  98712411.55407  25154646.560 7 101287483.66507
  21523243.266 7 113105417.77907  88134131.60308  21523247.848 8  21523248.750 7

  23408335.739 6 123011745.53006  95853386.16206  23408342.539 6  23408342.476 7

  22018297.267 7 117659101.23707  91512689.40707                  22018310.684 7

  23732289.506 6 124714177.70006  97179965.82004  23732288.001 4

  22647283.620 6 119012440.33206  92737079.14207  22647291.011 7  22647291.999 7

  21290279.966 7 113489173.34307

  25811191.901 7 135638751.04807
  25811200.000 7 101288897.53007  25811197.252 7 103931148.22707
  26189165.930 5 137625021.05005
  26189179.342 5 102771978.14705  26189175.445 5 105452967.83605
  28058492.322 5 147448414.71605
  28058498.893 5 110107634.64705  28058498.100 6 112979994.24106
  23963830.190 8 125930837.92808
  23963838.886 8  94039346.60008  23963836.345 8  96492534.46508
  21777229.783 5 116452773.40005  90574499.06406                  21777242.284 6

  21677441.784 7 113915858.38707  88765676.51006  21677446.002 6

  20642517.328 7 110152454.76607

  20781579.152 8 111089534.73408  86403014.53908                  20781589.917 8

  25506142.297 6 134035877.54106
  25506145.579 6 100091881.91506  25506143.570 7 102702945.00207
  22978208.904 7 122702458.50107  95435415.06007                  22978216.516 7

  22623004.204 4                  94158032.90305                  22623008.214 5

  25180922.624 7 132326813.95507
  25180932.959 7  98815624.86707  25180930.357 8 101393395.63608
 24  1 21 14 45  8.0000000  0 24G20G13E05G11G12E15G05G17R11G22G06R10
                                E03E27E08E30R20G19R06R05E02R09R21E34
  20155978.784 7 105920529.04207  82535570.92907  20155980.763 7

  24365570.150 6 128041939.88306  99772959.65703  24365567.524 3

  24787265.144 6 130257924.87206
  24787277.836 7  97270557.38607  24787274.990 7  99808033.34507
  21719922.790 7 114139118.53607  88939670.35305  21719928.028 5  21719928.501 7

  21507934.247 7 113025006.05307  88071466.68309  21507939.505 9  21507940.131 7

  25154642.311 6 132188611.34806
  25154654.593 7  98712432.20007  25154651.869 7 101287504.84207
  21522803.080 8 113103104.14208  88132328.77108  21522807.599 8  21522808.409 7

  23408672.560 6 123013516.03506  95854765.78106  23408679.467 6  23408679.278 7

  22018190.420 7 117658532.05207  91512246.70507                  22018204.087 7

  23732945.713 6 124717626.61306  97182653.28304  23732944.305 4

  22647585.596 6 119014027.37906  92738315.80707  22647593.065 7  22647594.000 7

  21290770.532 7 113491788.47407

  25810809.293 7 135636740.69507
  25810817.439 7 101287396.29207  25810814.707 7 103929607.83007
  26188854.005 5 137623381.83105
  26188867.353 5 102770754.03505  26188863.660 5 105451711.79805
  28058083.143 5 147446263.93805
  28058089.551 5 110106028.54105  28058088.819 6 112978346.25506
  23963983.716 8 125931644.67108
  23963992.412 8  94039949.03708  23963989.856 8  96493152.61508
  21777266.753 5 116452976.10005  90574656.72106                  21777279.928 6

  21677686.679 7 113917145.91007  88766679.77106  21677691.043 6

  20641936.655 7 110149355.87207

  20781791.464 8 111090669.26008  86403896.94408                  20781802.150 8

  25506671.409 7 134038658.79407
  25506674.722 7 100093958.81707  25506672.743 8 102705076.06308
  22978918.437 7 122706246.55207  95438361.31607                  22978925.834 7

                                  94157221.11805                  22622813.142 5

  25181111.030 7 132327803.89107
  25181121.377 7  98816364.11007  25181118.745 8 101394154.16308
 24  1 21 14 45  9.0000000  0 24G20G13E05G11G12E15G05G17R11G22G06R10
                                E03E27E08E30R20G19R06R05E02R09R21E34
  20156045.559 7 105920879.81207  82535844.22507  20156047.511 7

  24365097.038 6 128039454.16606  99771022.73403  24365094.574 3

  24787173.049 6 130257441.04106
  24787185.747 7  97270196.09107  24787182.908 7  99807662.61707
  21720070.587 7 114139895.44207  88940275.73905  21720075.874 5  21720076.425 7

  21507726.097 7 113023911.99807  88070614.17509  21507731.324 9  21507731.888 7

  25154647.685 6 132188639.08506
  25154659.894 7  98712452.92407  25154657.123 7 101287526.10107
  21522362.959 7 113100791.07607  88130526.38208  21522367.457 8  21522368.102 7

  23409009.638 6 123015286.95106  95856145.72206  23409016.471 6  23409016.237 6

  22018084.005 7 117657963.73307  91511804.67807                  22018097.484 7

  23733602.147 6 124721075.73606  97185340.89304  23733600.668 4

  22647887.527 6 119015614.44606  92739552.48607  22647895.119 7  22647896.038 7

  21291261.320 7 113494404.16707

  25810426.796 7 135634730.53107
  25810434.930 7 101285895.17507  25810432.196 7 103928067.55507
  26188542.146 5 137621743.01705
  26188555.588 5 102769530.27705  26188551.759 5 105450456.11605
  28057674.111 5 147444113.05805
  28057680.224 5 110104422.36605  28057679.536 6 112976698.17606
  23964137.322 8 125932451.96108
  23964146.015 8  94040551.87408  23964143.490 8  96493771.18408
  21777304.781 5 116453178.78805  90574814.39006                  21777317.879 6

  21677931.813 7 113918433.90807  88767683.40406  21677936.173 6

  20641356.007 7 110146257.55707

  20782003.957 8 111091804.74308  86404780.10108                  20782014.534 8

  25507200.635 7 134041440.10507
  25507203.937 8 100096035.77608  25507201.945 8 102707207.20208
  22979627.898 7 122710034.64307  95441307.60407                  22979635.300 7

                                  94156409.30905                  22622618.599 5

  25181299.361 7 132328793.82607
  25181309.768 7  98817103.35207  25181307.119 8 101394912.68808
 24  1 21 14 45 10.0000000  0 24G20G13E05G11G12E15G05G17R11G22G06R10
                                E03E27E08E30R20G19R06R05E02R09R21E34
  20156112.550 7 105921231.52807  82536118.25807  20156114.438 7

  24364624.037 6 128036968.58506  99769085.93303  24364621.606 3

  24787081.102 6 130256957.94806
  24787093.804 7  97269835.33607  24787090.971 7  99807292.45807
  21720218.575 7 114140672.78407  88940881.46505  21720223.804 5  21720224.293 7

  21507518.183 7 113022818.95907  88069762.46209  21507523.340 9  21507523.970 7

  25154653.107 6 132188667.22306
  25154665.255 7  98712473.94407  25154662.479 7 101287547.67907
  21521923.034 7 113098478.89307  88128724.68008  21521927.481 8  21521928.094 7

  23409346.742 6 123017058.58806  95857526.22406  23409353.617 6  23409353.466 6

  22017977.831 7 117657396.59107  91511363.56807                  22017991.479 7

  23734258.351 6 124724525.33306  97188028.88004  23734257.147 4

  22648189.449 6 119017201.83406  92740789.41507  22648197.226 7  22648198.070 7

  21291752.128 7 113497020.70207

  25810044.347 6 135632720.82506
  25810052.525 7 101284394.41707  25810049.783 7 103926527.64607
  26188230.565 5 137620105.01805
  26188243.998 5 102768307.08405  26188239.890 5 105449201.01005
  28057264.883 5 147441962.34905
  28057270.889 5 110102816.35305  28057270.289 6 112975050.24306
  23964291.095 8 125933260.08008
  23964299.809 8  94041155.34308  23964297.266 8  96494390.39108
  21777342.689 5 116453381.79805  90574972.28106                  21777355.680 6

  21678177.030 7 113919722.70207  88768687.65706  21678181.459 6

  20640775.358 7 110143160.14707

  20782216.569 8 111092941.48208  86405664.23508                  20782227.108 8

  25507730.101 6 134044221.81806
  25507733.189 6 100098112.81706  25507731.099 6 102709338.38806
  22980337.477 7 122713823.01307  95444254.12007                  22980344.806 7

                                                                  22622423.430 5

  25181487.822 7 132329784.06407
  25181498.164 7  98817842.82107  25181495.547 8 101395671.44808
 24  1 21 14 45 11.0000000  0 24G20G13E05G11G12E15G05G17R11G22G06R10
                                E03E27E08E30R20G19R06R05E02R09R21E34
  20156179.619 7 105921583.44607  82536392.46907  20156181.418 7

  24364150.907 6 128034482.55306  99767148.77203  24364148.463 3

  24786989.233 6 130256474.96806
  24787001.907 7  97269474.68007  24786999.016 7  99806922.38807
  21720366.471 7 114141449.93707  88941487.04605  21720371.685 5  21720372.178 7

  21507310.337 7 113021726.31907  88068911.05709  21507315.432 9  21507316.040 7

  25154658.494 6 132188695.16006
  25154670.557 7  98712494.80607  25154667.762 7 101287569.07907
  21521483.147 7 113096166.93007  88126923.15008  21521487.545 8  21521488.087 7

  23409683.927 6 123018830.31006  95858906.79006  23409690.782 6  23409690.546 6

  22017871.769 7 117656829.97807  91510922.87107                  22017885.607 7

  23734914.690 6 124727974.78106  97190716.75204  23734913.590 4

  22648491.514 6 119018788.91006  92742026.09807  22648499.280 7  22648500.134 7

  21292243.146 7 113499637.42507

  25809661.875 6 135630710.97406
  25809670.076 7 101282893.54007  25809667.327 7 103924987.61907
  26187918.951 5 137618467.09605
  26187932.337 5 102767083.96105  26187928.165 5 105447946.00005
  28056855.791 5 147439811.20605
  28056861.541 5 110101209.95905  28056860.951 6 112973401.96606
  23964444.917 8 125934068.40408
  23964453.613 8  94041758.95008  23964451.069 8  96495009.75008
  21777379.800 5 116453584.49605  90575129.94406                  21777393.910 6

  21678422.376 7 113921011.63307  88769692.01806  21678426.763 6

  20640195.083 7 110140062.98107

  20782429.346 8 111094078.82008  86406548.83408                  20782439.701 8

  25508259.524 6 134047003.46806
  25508262.448 6 100100190.14006  25508260.496 7 102711469.94007
  22981046.822 7 122717611.04407  95447200.37107                  22981054.258 7

  22622233.591 4                                                  22622227.397 5

  25181676.272 7 132330773.97807
  25181686.533 7  98818582.05007  25181683.930 8 101396429.95508
 24  1 21 14 45 12.0000000  0 24G20G13E05G11G12E15G05G17R11G22G06R10
                                E03E27E08E30R20G19R06R05E02R09R21E34
  20156246.699 7 105921935.85507  82536667.05907  20156248.497 7

  24363677.659 6 128031996.18006  99765211.34103  24363675.357 3

  24786897.412 6 130255992.21206
  24786910.122 7  97269114.19707  24786907.106 7  99806552.50507
  21720514.329 7 114142227.01007  88942092.56005  21720519.557 5  21720520.001 7

  21507102.546 7 113020634.18007  88068060.04508  21507107.618 8  21507108.240 7

  25154663.706 6 132188722.96306
  25154675.843 7  98712515.57907  25154673.074 7 101287590.39007
  21521043.260 8 113093855.32908  88125121.90308  21521047.676 8  21521048.315 7

  23410021.158 6 123020602.25206  95860287.53106  23410027.983 6  23410027.821 6

  22017765.667 7 117656264.03007  91510482.67407                  22017779.602 7

  23735571.045 6 124731424.21206  97193404.61804  23735570.029 4

  22648793.412 6 119020375.76506  92743262.61007  22648801.289 7  22648802.043 7

  21292734.022 7 113502254.44707

  25809279.475 6 135628701.06306
  25809287.615 7 101281392.63607  25809284.869 7 103923447.56507
  26187607.336 5 137616829.43905
  26187620.735 5 102765861.02005  26187616.503 5 105446691.14905
  28056446.545 5 147437659.68005
  28056452.226 5 110099603.32705  28056451.405 6 112971753.41106
  23964598.798 8 125934877.04808
  23964607.473 8  94042362.80508  23964604.951 8  96495629.35208
  21777417.625 5 116453786.96205  90575287.41206                  21777431.697 6

  21678667.771 7 113922300.82607  88770696.58106  21678672.121 6

  20639614.948 7 110136966.18607

  20782642.261 8 111095216.84208  86407433.96708                  20782652.503 8

  25508788.975 6 134049785.26406
  25508791.873 6 100102267.46706  25508789.870 7 102713601.47807
  22981756.385 7 122721398.88107  95450146.46207                  22981763.663 7

                                                                  22622031.544 5

  25181864.581 7 132331763.67607
  25181874.895 7  98819321.10307  25181872.254 8 101397188.29408
 24  1 21 14 45 13.0000000  0 24G20G13E05G11G12E15G05G17R11G22G06R10
                                E03E27E08E30R20G19R06R05E02R09R21E34
  20156313.858 7 105922288.61507  82536941.93807  20156315.639 7

  24363204.467 6 128029509.39206  99763273.59003  24363202.201 3

  24786805.490 6 130255509.65906
  24786818.276 7  97268753.85307  24786815.263 7  99806182.76307
  21720662.326 7 114143003.96807  88942697.98505  21720667.420 5  21720667.814 7

  21506894.828 7 113019542.51507  88067209.40008  21506899.898 8  21506900.533 7

  25154668.980 6 132188750.63506
  25154681.118 7  98712536.24607  25154678.337 7 101287611.59907
  21520603.424 8 113091544.06408  88123320.91608  21520607.878 8  21520608.530 7

  23410358.347 6 123022374.36406  95861668.40506  23410365.206 6  23410364.984 6

  22017659.971 7 117655698.66507  91510042.95407                  22017673.759 7

  23736227.587 6 124734873.57406  97196092.43604  23736226.454 4

  22649095.464 6 119021962.40306  92744498.95607  22649103.253 7  22649103.801 7

  21293224.797 7 113504871.73407

  25808897.035 6 135626691.06306
  25808905.139 7 101279891.66507  25808902.395 7 103921907.42807
  26187295.795 5 137615191.96605
  26187309.124 5 102764638.25305  26187304.799 5 105445436.49705
  28056037.158 5 147435507.81005
  28056042.896 5 110097996.40905  28056041.941 6 112970104.59106
  23964752.770 8 125935685.97708
  23964761.401 8  94042966.87208  23964758.886 8  96496249.18208
  21777456.409 5 116453989.19105  90575444.69206                  21777469.411 6

  21678913.085 7 113923590.24807  88771701.32206  21678917.528 6

  20639034.734 7 110133869.70207

  20782855.220 8 111096355.52708  86408319.61508                  20782865.538 8

  25509318.301 6 134052567.08806
  25509321.314 7 100104344.76507  25509319.274 8 102715732.96308
  22982465.638 7 122725186.46007  95453092.36507                  22982472.771 7

                                                                  22621836.540 5

  25182052.920 7 132332753.12007
  25182063.144 7  98820059.98007  25182060.560 8 101397946.45308
 24  1 21 14 45 14.0000000  0 24G20G13E05G11G12E15G05G17R11G22G06R10
                                E03E27E08E30R20G19R06R05E02R09R21E34
  20156381.102 8 105922641.84608  82537217.18207  20156382.861 7

  24362731.017 6 128027022.37706  99761335.66603  24362728.960 3

  24786713.671 6 130255027.43306
  24786726.452 7  97268393.76607  24786723.491 7  99805813.27307
  21720810.303 7 114143780.95007  88943303.43305  21720815.305 5  21720815.719 7

  21506687.168 7 113018451.46907  88066359.23808  21506692.294 8  21506692.888 7

  25154674.157 6 132188778.30106
  25154686.401 7  98712556.92107  25154683.561 7 101287632.80207
  21520163.762 8 113089233.24208  88121520.27708  21520168.161 8  21520168.835 7

  23410695.419 6 123024146.79506  95863049.52806  23410702.491 6  23410702.237 6

  22017554.377 7 117655134.06107  91509603.81307                  22017568.059 7

  23736884.014 6 124738323.03206  97198780.32104  23736882.892 4

  22649397.156 6 119023548.93806  92745735.21807  22649405.195 7  22649405.600 7

  21293716.027 7 113507489.45007

  25808514.542 6 135624681.14006
  25808522.625 7 101278390.72907  25808519.920 7 103920367.34907
  26186984.299 5 137613554.86005
  26186997.572 5 102763415.72605  26186993.154 5 105444182.08005
  28055627.728 5 147433355.68505
  28055633.302 5 110096389.32805  28055632.371 6 112968455.56406
  23964906.778 8 125936495.32208
  23964915.384 8  94043571.25408  23964912.900 8  96496869.32808
  21777494.911 5 116454191.33505  90575601.89906                  21777507.147 6

  21679158.405 7 113924880.04207  88772706.35306  21679162.998 6

  20638454.617 7 110130773.69807

  20783068.341 8 111097495.02408  86409205.89108                  20783078.687 8

  25509847.727 7 134055349.06207
  25509850.770 7 100106422.26007  25509848.713 8 102717864.65808
  22983174.966 7 122728973.94107  95456038.19107                  22983182.082 7

  22621652.200 3                                                  22621641.954 5

  25182241.293 7 132333742.46407
  25182251.418 7  98820798.77707  25182248.843 8 101398704.51508
 24  1 21 14 45 15.0000000  0 24G20G13E05G11G12E15G05G17R11G22G06R10
                                E03E27E08E30R20G19R06R05E02R09R21E34
  20156448.447 8 105922995.60108  82537492.82407  20156450.181 7

  24362257.567 6 128024535.20806  99759397.62103  24362255.715 3

  24786622.000 6 130254545.64106
  24786634.807 7  97268033.98707  24786631.787 7  99805444.11807
  21720958.315 7 114144558.05007  88943908.97305  21720963.213 5  21720963.627 7

  21506479.668 7 113017361.13007  88065509.62808  21506484.819 8  21506485.420 7

  25154679.417 6 132188806.06006
  25154691.637 7  98712577.64807  25154688.884 7 101287654.07007
  21519724.157 7 113086922.97107  88119720.06608  21519728.543 8  21519729.202 7

  23411032.982 6 123025919.62406  95864430.95906  23411039.844 6  23411039.577 6

  22017448.891 7 117654570.30307  91509165.31407                  22017462.625 7

  23737540.360 6 124741772.66106  97201468.33504  23737539.358 4

  22649698.946 6 119025135.48306  92746971.48807  22649707.136 7  22649707.595 7

  21294207.472 7 113510107.66507

  25808132.071 6 135622671.35206
  25808140.161 7 101276889.92707  25808137.457 7 103918827.39207
  26186673.004 5 137611918.19705
  26186686.166 5 102762193.55905  26186681.716 5 105442928.02705
  28055218.315 5 147431203.46605
  28055223.626 5 110094782.12505  28055222.869 6 112966806.45406
  23965060.946 8 125937305.19108
  23965069.487 8  94044176.01808  23965067.017 8  96497489.87608
  21777533.279 5 116454393.44705  90575759.10706                  21777545.147 6

  21679403.930 7 113926170.30507  88773711.75106  21679408.553 6

  20637874.671 7 110127678.30107

  20783281.549 8 111098635.45708  86410092.89308                  20783291.966 8

  25510377.133 6 134058131.21306
  25510380.173 7 100108499.84407  25510378.191 8 102719996.43908
  22983884.073 7 122732761.42307  95458984.00807                  22983891.362 7

  22621455.310 3                                                  22621448.026 5

  25182429.567 7 132334731.79007
  25182439.662 7  98821537.56207  25182437.105 8 101399462.57408
 24  1 21 14 45 16.0000000  0 24G20G13E05G11G12E15G05G17R11G22G06R10
                                E03E27E08E30R20G19R06R05E02R09R21E34
  20156515.861 7 105923349.78707  82537768.75207  20156517.582 7

  24361784.220 6 128022047.80706  99757459.39303  24361782.416 3

  24786530.432 6 130254064.17206
  24786543.098 7  97267674.47307  24786540.168 7  99805075.21207
  21721106.183 7 114145335.18907  88944514.54705  21721111.135 5  21721111.513 7

  21506272.330 7 113016271.41607  88064660.50508  21506277.470 8  21506277.991 7

  25154684.627 6 132188833.81806
  25154696.942 7  98712598.38107  25154694.116 7 101287675.35107
  21519284.654 7 113084613.16907  88117920.22008  21519289.018 8  21519289.609 7

  23411370.313 6 123027692.76706  95865812.63206  23411377.255 6  23411377.088 6

  22017343.421 7 117654007.28807  91508727.42207                  22017357.287 7

  23738196.814 6 124745222.37906  97204156.42304  23738195.837 4

  22650000.779 6 119026721.94206  92748207.69307  22650009.056 7  22650009.577 7

  21294698.721 7 113512726.30907

  25807749.609 6 135620661.64006
  25807757.696 7 101275389.14907  25807755.006 7 103917287.46207
  26186361.770 5 137610281.86205
  26186374.814 5 102760971.62105  26186370.309 5 105441674.19205
  28054808.808 5 147429050.99705
  28054813.975 5 110093174.79205  28054813.270 6 112965157.16906
  23965215.181 8 125938115.48208
  23965223.675 8  94044781.11308  23965221.205 8  96498110.74608
  21777572.148 5 116454595.47205  90575916.23806                  21777583.154 6

  21679649.417 7 113927460.94207  88774717.44206  21679654.183 6

  20637294.626 7 110124583.37107

  20783494.842 8 111099776.73308  86410980.55808                  20783505.466 8

  25510906.529 7 134060913.44007
  25510909.536 7 100110577.49107  25510907.621 7 102722128.29407
  22984593.266 7 122736548.77007  95461929.72807                  22984600.467 7

                                                                  22621252.494 5

  25182617.893 7 132335721.01507
  25182627.975 7  98822276.27307  25182625.379 8 101400220.55508
 24  1 21 14 45 17.0000000  0 24G20G13E05G11G12E15G05G17R11G22G06R10
                                E03E27E08E30R20G19R06R05E02R09R21E34
  20156583.440 7 105923704.93007  82538045.42907  20156585.152 7

  24361310.788 6 128019560.53406  99755521.26403  24361309.153 3

  24786438.949 6 130253583.45106
  24786451.593 7  97267315.49907  24786448.684 7  99804706.87507
  21721253.996 7 114146112.75607  88945120.44605  21721259.123 5  21721259.340 7

  21506065.241 7 113015182.71207  88063812.16808  21506070.318 8  21506070.710 7

  25154689.936 6 132188861.95706
  25154702.288 7  98712619.40907  25154699.459 7 101287696.93507
  21518845.333 7 113082304.22307  88116121.04008  21518849.659 8  21518850.292 7

  23411707.877 6 123029466.62706  95867194.86906  23411714.800 6  23411714.529 6

  22017238.185 7 117653445.45707  91508290.42907                  22017252.083 7

  23738853.275 6 124748672.57706  97206844.88504  23738852.437 4

  22650302.832 6 119028308.68206  92749444.11907  22650311.029 7  22650311.533 7

  21295190.237 7 113515345.76007

  25807367.300 6 135618652.36706
  25807375.331 7 101273888.72507  25807372.684 7 103915747.89707
  26186050.643 5 137608646.27705
  26186063.541 5 102759750.27105  26186059.011 5 105440420.97405
  28054399.123 5 147426898.68805
  28054404.551 5 110091567.53505  28054403.765 6 112963507.99906
  23965369.564 8 125938926.60308
  23965378.017 8  94045386.80908  23965375.543 8  96498732.25008
  21777609.899 5 116454797.79605  90576073.59806                  21777621.245 6

  21679895.220 7 113928752.34207  88775723.72806  21679899.939 6

  20636714.540 7 110121489.33807

  20783708.502 8 111100919.27108  86411869.19608                  20783719.218 8

  25511436.061 6 134063696.25006
  25511439.125 6 100112655.63206  25511437.202 7 102724260.62507
  22985302.503 7 122740336.39407  95464875.66407                  22985309.753 7

                                  94149911.18104                  22621056.678 4

  25182806.207 7 132336710.53807
  25182816.239 7  98823015.19707  25182813.670 8 101400978.76208
 24  1 21 14 45 18.0000000  0 24G20G13E05G11G12E15G05G17R11G22G06R10
                                E03E27E08E30R20G19R06R05E02R09R21E34
  20156651.168 7 105924060.64507  82538322.57107  20156652.839 7

  24360837.469 6 128017072.99206  99753582.93203  24360835.836 3

  24786347.539 6 130253103.02606
  24786360.132 7  97266956.74707  24786357.268 7  99804338.75807
  21721401.822 7 114146890.31607  88945726.34005  21721407.129 5  21721407.453 7

  21505858.169 7 113014094.59007  88062964.28509  21505863.273 9  21505863.653 7

  25154695.209 6 132188890.09906
  25154707.646 7  98712640.41007  25154704.805 7 101287718.48507
  21518405.965 7 113079995.71207  88114322.20308  21518410.384 8  21518411.041 7

  23412045.461 6 123031240.76906  95868577.32406  23412052.385 6  23412052.049 6

  22017133.412 7 117652884.32507  91507854.00507                  22017147.017 7

  23739509.848 6 124752122.82606  97209533.38804  23739509.045 4

  22650604.806 6 119029895.31606  92750680.45907  22650612.966 7  22650613.541 7

  21295681.953 7 113517965.58707

  25806984.922 6 135616643.13606
  25806992.988 7 101272388.31607  25806990.347 7 103914208.34807
  26185739.513 5 137607011.01705
  26185752.321 5 102758529.10905  26185747.990 5 105439168.00005
  28053989.444 5 147424746.07905
  28053994.861 5 110089960.14105  28053994.175 6 112961858.62506
  23965524.001 8 125939738.11608
  23965532.474 8  94045992.80508  23965529.975 8  96499354.05908
  21777647.943 5 116454999.94905  90576230.86806                  21777658.914 6

  21680141.070 7 113930044.09207  88776730.28506  21680145.771 6

  20636134.630 7 110118395.72607

  20783922.434 8 111102062.59908  86412758.44908                  20783933.074 8

  25511965.577 7 134066479.13807
  25511968.637 7 100114733.68107  25511966.773 8 102726392.88308
  22986011.979 7 122744123.88707  95467821.49607                  22986019.033 7

                                  94149098.54905                  22620860.877 5

  25182994.449 7 132337699.90807
  25183004.487 7  98823754.02907  25183001.958 8 101401736.85908
 24  1 21 14 45 19.0000000  0 24G20G13E05G11G12E15G05G17R11G22G06R10
                                E03E27E08E30R20G19R06R05E02R09R21E34
  20156718.935 8 105924416.79708  82538600.05807  20156720.616 7

  24360364.063 6 128014585.07006  99751644.29603  24360362.461 3

  24786256.126 6 130252622.79206
  24786268.751 7  97266598.13707  24786265.848 7  99803970.79607
  21721549.758 7 114147667.76007  88946332.14605  21721555.113 5  21721555.389 7

  21505651.168 7 113013006.94207  88062116.77109  21505656.313 9  21505656.831 7

  25154700.538 6 132188918.06306
  25154712.973 7  98712661.31307  25154710.101 7 101287739.92607
  21517966.728 7 113077687.50607  88112523.60208  21517971.164 8  21517971.844 7

  23412382.978 6 123033015.07106  95869959.90106  23412390.001 6  23412389.716 6

  22017028.565 7 117652323.78807  91507418.01307                  22017042.102 7

  23740166.480 6 124755573.01506  97212221.84604  23740165.631 4

  22650906.724 6 119031481.72306  92751916.62007  22650914.859 7  22650915.423 7

  21296173.490 7 113520585.69207

  25806602.602 6 135614633.80506
  25806610.590 7 101270887.83307  25806607.961 7 103912668.71607
  26185428.602 5 137605375.94005
  26185441.232 5 102757308.12305  26185437.091 5 105437915.15405
  28053579.873 5 147422593.12305
  28053585.028 5 110088352.40305  28053584.474 6 112960208.97506
  23965678.516 8 125940549.91008
  23965686.948 8  94046599.01308  23965684.424 8  96499976.07708
  21777684.416 5 116455201.91905  90576387.94006                  21777696.590 6

  21680386.932 7 113931336.05807  88777737.01006  21680391.648 6

  20635554.694 7 110115302.42707

  20784136.599 8 111103206.59508  86413648.23008                  20784147.092 8

  25512495.206 6 134069262.02206
  25512498.214 7 100116811.88007  25512496.358 8 102728525.30208
  22986720.876 7 122747911.11907  95470767.12907                  22986728.244 7

                                  94148285.69305                  22620665.344 5

  25183182.637 7 132338689.04007
  25183192.711 7  98824492.65907  25183190.178 8 101402494.76008
 24  1 21 14 45 20.0000000  0 24G20G13E05G11G12E15G05G17R11G22G06R10
                                E03E27E08E30R20G19R06R05E02R09R21E34
  20156786.734 7 105924773.27207  82538877.80807  20156788.468 7

  24359890.361 6 128012096.89206  99749705.45603  24359888.921 3

  24786164.842 6 130252142.88406
  24786177.421 7  97266239.77307  24786174.522 7  99803603.07907
  21721697.600 7 114148445.21307  88946937.96205  21721703.101 5  21721703.373 7

  21505444.313 7 113011919.88807  88061269.72108  21505449.469 8  21505449.894 7

  25154705.779 6 132188946.01306
  25154718.291 7  98712682.19407  25154715.371 7 101287761.33907
  21517527.557 7 113075379.73807  88110725.34408  21517532.028 8  21517532.579 7

  23412720.497 6 123034789.67406  95871342.71506  23412727.676 6  23412727.348 6

  22016923.618 7 117651763.98907  91506982.60907                  22016937.392 7

  23740823.036 6 124759023.28106  97214910.37404  23740822.186 4

  22651208.625 6 119033068.00306  92753152.68607  22651216.725 7  22651217.369 7

  21296665.079 7 113523206.19607

  25806220.351 6 135612624.50506
  25806228.274 7 101269387.38707  25806225.604 7 103911129.13207
  26185117.433 5 137603741.21805
  26185130.141 5 102756087.37805  26185126.012 5 105436662.54305
  28053170.212 5 147420439.94905
  28053175.264 5 110086744.50205  28053174.686 6 112958559.13106
  23965833.071 8 125941362.10708
  23965841.512 8  94047205.52208  23965838.980 8  96500598.40808
  21777721.820 5 116455403.70305  90576544.89906                  21777734.203 6

  21680632.837 7 113932628.36907  88778744.00506  21680637.587 6

  20634974.873 7 110112209.58607

  20784351.081 8 111104351.39508  86414538.63408                  20784361.295 8

  25513024.722 6 134072044.97506
  25513027.748 7 100118890.04007  25513025.915 8 102730657.67508
  22987430.269 7 122751698.21307  95473712.66107                  22987437.396 7

                                  94147472.68704                  22620471.336 4

  25183370.910 7 132339678.03807
  25183380.928 7  98825231.20507  25183378.365 8 101403252.56908
 24  1 21 14 45 21.0000000  0 24G20G13E05G11G12E15G05G17R11G22G06R10
                                E03E27E08E30R20G19R06R05E02R09R21E34
  20156854.688 7 105925130.19307  82539155.87607  20156856.410 7

  24359417.011 6 128009608.45306  99747766.41603  24359415.425 3

  24786073.501 6 130251663.29306
  24786086.103 7  97265881.64107  24786083.267 7  99803235.60707
  21721845.549 7 114149222.68407  88947543.78805  21721851.103 5  21721851.472 7

  21505237.537 7 113010833.44607  88060423.14609  21505242.737 9  21505243.162 7

  25154711.008 6 132188973.95506
  25154723.594 7  98712703.05407  25154720.711 7 101287782.75407
  21517088.572 7 113073072.42007  88108927.43608  21517092.968 8  21517093.581 7

  23413058.022 6 123036564.57906  95872725.76306  23413065.409 6  23413064.952 6

  22016818.996 7 117651204.91707  91506547.78207                  22016832.959 7

  23741479.599 6 124762473.61506  97217598.94504  23741478.781 4

  22651510.427 6 119034654.18706  92754388.67507  22651518.568 7  22651519.197 7

  21297156.731 7 113525827.11207

  25805837.960 6 135610615.27906
  25805845.936 7 101267886.98007  25805843.243 7 103909589.59307
  26184806.528 5 137602106.81105
  26184819.086 5 102754866.88805  26184814.771 5 105435410.22805
  28052760.471 5 147418286.51405
  28052765.255 5 110085136.42605  28052764.912 6 112956909.09406
  23965987.683 8 125942174.72908
  23965996.158 8  94047812.34708  23965993.592 8  96501221.06308
  21777759.839 5 116455605.42105  90576701.79306                  21777771.761 6

  21680878.932 7 113933921.05807  88779751.29406  21680883.589 6

  20634395.346 7 110109117.22507

  20784565.360 8 111105497.01108  86415429.66808                  20784575.582 8

  25513554.340 7 134074828.02307
  25513557.330 8 100120968.21608  25513555.466 8 102732790.06208
  22988139.552 7 122755485.22407  95476658.12607                  22988146.497 7

                                  94146659.60405                  22620276.234 5

  25183558.982 7 132340666.91707
  25183569.090 7  98825969.65407  25183566.529 8 101404010.28308
 24  1 21 14 45 22.0000000  0 24G20G13E05G11G12E15G05G17R11G22G06R10
                                E03E27E08E30R20G19R06R05E02R09R21E34
  20156922.649 7 105925487.26107  82539434.05507  20156924.365 7

  24358943.278 6 128007119.28906  99745826.81403  24358941.755 3

  24785982.298 6 130251183.55506
  24785994.826 7  97265523.40707  24785991.956 7  99802868.02407
  21721993.351 7 114149999.69707  88948149.25905  21721999.011 5  21721999.362 7

  21505030.774 7 113009747.13807  88059576.67608  21505036.036 8  21505036.410 7

  25154716.174 6 132189001.39606
  25154728.785 7  98712723.57307  25154725.919 7 101287803.79607
  21516649.465 7 113070765.09107  88107129.51908  21516653.904 8  21516654.471 7

  23413395.872 6 123038339.33106  95874108.69106  23413403.114 6  23413402.877 6

  22016714.251 7 117650646.12707  91506113.15407                  22016728.439 7

  23742135.952 6 124765923.56306  97220287.22104  23742135.251 4

  22651811.897 6 119036239.77706  92755624.20507  22651820.296 7  22651820.845 7

  21297648.171 7 113528447.97507

  25805455.517 7 135608605.61207
  25805463.540 7 101266386.25307  25805460.821 7 103908049.71107
  26184495.612 6 137600472.27606
  26184508.043 5 102753646.31805  26184503.652 5 105434157.80805
  28052350.601 5 147416132.33405
  28052355.243 5 110083527.79305  28052355.008 6 112955258.51106
  23966142.309 8 125942987.29008
  23966150.790 8  94048419.12408  23966148.220 8  96501843.66808
  21777797.769 5 116455806.53505  90576858.21506                  21777809.419 6

  21681124.827 7 113935213.62907  88780758.48606  21681129.564 6

  20633815.974 7 110106024.86407

  20784779.829 8 111106642.95108  86416320.95208                  20784790.030 8

  25514083.870 7 134077610.67107
  25514086.845 7 100123046.06007  25514084.978 7 102734922.13607
  22988848.822 7 122759271.62007  95479603.10207                  22988855.671 7

                                  94145845.98005                  22620081.202 5

  25183747.064 7 132341655.22607
  25183757.151 7  98826707.67207  25183754.625 8 101404767.55608
 24  1 21 14 45 23.0000000  0 24G20G13E05G11G12E15G05G17R11G22G06R10
                                E03E27E08E30R20G19R06R05E02R09R21E34
  20156990.802 7 105925844.91007  82539712.70507  20156992.423 7

  24358469.651 6 128004629.97706  99743887.09803  24358468.130 3

  24785891.094 6 130250704.24306
  24785903.581 7  97265165.48307  24785900.748 7  99802500.75407
  21722141.229 7 114150776.81407  88948754.81005  21722146.932 5  21722147.261 7

  21504824.184 7 113008661.50707  88058730.73408  21504829.456 8  21504829.850 7

  25154721.329 6 132189028.94106
  25154733.904 7  98712744.13507  25154731.174 7 101287824.90107
  21516210.486 8 113068458.27408  88105332.00208  21516214.943 8  21516215.478 7

  23413733.538 6 123040114.46506  95875491.91406  23413740.887 6  23413740.782 6

  22016609.821 7 117650088.14307  91505679.16507                  22016624.160 7

  23742792.497 6 124769373.65906  97222975.60304  23742791.806 4

  22652113.618 6 119037825.36306  92756859.73007  22652122.023 7  22652122.533 7

  21298139.650 7 113531069.35107

  25805073.117 6 135606596.09006
  25805081.154 7 101264885.60307  25805078.455 7 103906509.92107
  26184184.703 6 137598838.16106
  26184197.019 5 102752426.03305  26184192.847 5 105432905.70305
  28051940.605 5 147413978.03005
  28051945.294 5 110081919.07305  28051945.018 6 112953607.80806
  23966297.048 8 125943800.34708
  23966305.501 8  94049026.28008  23966302.940 8  96502466.66408
  21777835.084 5 116456007.59205  90577014.59806                  21777846.728 6

  21681370.771 7 113936506.64507  88781766.03106  21681375.628 6

  20633236.734 7 110102933.07107

  20784994.405 8 111107789.77908  86417212.93508                  20785004.668 8

  25514613.465 6 134080393.39806
  25514616.420 7 100125123.97907  25514614.601 7 102737054.25807
  22989557.802 7 122763057.97907  95482548.05707                  22989564.944 7

                                  94145032.27105                  22619885.841 5

  25183935.119 7 132342643.48007
  25183945.222 7  98827445.66207  25183942.702 8 101405524.80208
 24  1 21 14 45 24.0000000  0 24G20G13E05G11G12E15G05G17R11G22G06R10
                                E03E27E08E30R20G19R06R05E02R09R21E34
  20157059.028 7 105926203.10707  82539991.78407  20157060.598 7

  24357995.885 6 128002140.30806  99741947.09203  24357994.406 3

  24785800.018 6 130250225.15906
  24785812.393 7  97264807.73807  24785809.584 7  99802133.68407
  21722289.064 7 114151553.87407  88949360.31905  21722294.863 5  21722295.159 7

  21504617.705 7 113007576.42407  88057885.21908  21504622.983 8  21504623.540 7

  25154726.507 6 132189056.37306
  25154739.089 7  98712764.63507  25154736.335 7 101287845.92607
  21515771.518 8 113066151.83908  88103534.78108  21515776.049 8  21515776.535 7

  23414071.264 6 123041889.81906  95876875.31406  23414078.701 6  23414078.636 6

  22016505.320 7 117649530.83107  91505245.70507                  22016519.862 7

  23743449.015 6 124772823.76106  97225663.99404  23743448.348 4

  22652415.310 6 119039410.77506  92758095.11607  22652423.714 7  22652424.126 7

  21298631.338 7 113533691.06207

  25804690.701 6 135604586.51306
  25804698.735 7 101263384.95007  25804696.070 7 103904970.11707
  26183873.755 6 137597204.30906
  26183886.208 5 102751205.93305  26183881.733 5 105431653.78805
  28051530.698 5 147411823.40105
  28051535.266 5 110080310.10905  28051535.021 6 112951956.87106
  23966451.816 8 125944613.75008
  23966460.268 8  94049633.68908  23966457.721 8  96503089.91708
  21777872.862 5 116456208.46905  90577170.83306                  21777884.372 6

  21681616.712 7 113937799.96207  88782773.80906  21681621.733 6

  20632657.518 7 110099841.64807

  20785208.992 8 111108937.36408  86418105.51108                  20785219.344 8

  25515143.094 6 134083176.24406
  25515146.155 6 100127202.08206  25515144.229 7 102739186.57407
  22990266.539 7 122766844.13307  95485492.85007                  22990273.855 7

                                  94144218.38505                  22619690.107 5

  25184123.094 7 132343631.56107
  25184133.243 7  98828183.51207  25184130.736 8 101406281.89708
 24  1 21 14 45 25.0000000  0 24G20G13E05G11G12E15G05G17R11G22G06R10
                                E03E27E08E30R20G19R06R05E02R09R21E34
  20157127.399 7 105926562.07807  82540271.50407  20157128.933 7

  24357522.133 6 127999650.68006  99740007.12803  24357520.718 3

  24785709.021 6 130249746.70906
  24785721.346 7  97264450.46707  24785718.559 7  99801767.09507
  21722437.080 7 114152331.26207  88949966.08405  21722442.869 5  21722443.106 7

  21504411.373 7 113006492.24407  88057040.40608  21504416.676 8  21504417.173 7

  25154731.889 6 132189084.10206
  25154744.379 7  98712785.35107  25154741.683 7 101287867.18807
  21515332.738 7 113063846.16707  88101738.15708  21515337.293 8  21515337.763 7

  23414409.143 6 123043665.75106  95878259.16506  23414416.617 6  23414416.558 6

  22016401.147 7 117648974.56507  91504813.06007                  22016415.751 7

  23744105.664 6 124776274.23406  97228352.67904  23744104.970 4

  22652717.062 6 119040996.38406  92759330.65807  22652725.432 7  22652725.852 7

  21299123.377 7 113536313.51107

  25804308.331 6 135602577.29606
  25804316.414 7 101261884.53907  25804313.730 7 103903430.57307
  26183562.953 6 137595571.09506
  26183575.454 5 102749986.34505  26183570.932 5 105430402.36705
  28051120.380 5 147409668.84505
  28051125.229 5 110078701.16805  28051124.991 6 112950305.96906
  23966606.677 8 125945427.86708
  23966615.204 8  94050241.63308  23966612.649 8  96503713.72308
  21777911.012 5 116456409.54005  90577327.20407                  21777921.822 7

  21681862.852 7 113939093.93007  88783782.09506  21681867.968 6

  20632078.427 7 110096751.01607

  20785423.866 8 111110086.11008  86418998.97408                  20785434.210 8

  25515672.931 6 134085959.58906
  25515675.849 7 100129280.45107  25515673.968 7 102741319.19607
  22990975.358 7 122770630.48707  95488437.80807                  22990982.898 7

                                  94143404.55605                  22619492.580 5

  25184311.105 7 132344619.82007
  25184321.304 7  98828921.50407  25184318.809 8 101407039.13808
 24  1 21 14 45 26.0000000  0 24G20G13E05G11G12E15G05G17R11G22G06R10
                                E03E27E08E30R20G19R06R05E02R09R21E34
  20157195.906 7 105926921.73007  82540551.75707  20157197.398 7

  24357048.439 6 127997161.06806  99738067.18003  24357046.968 3

  24785618.132 6 130249268.84306
  24785630.414 7  97264093.62707  24785627.612 7  99801400.94607
  21722585.072 6 114153108.91806  88950572.05705  21722590.915 5  21722591.077 7

  21504205.200 7 113005408.92607  88056196.26808  21504210.539 8  21504211.009 7

  25154737.275 6 132189112.09206
  25154749.675 7  98712806.24607  25154746.958 7 101287888.63107
  21514894.039 7 113061541.19007  88099942.07308  21514898.672 8  21514899.137 7

  23414747.202 6 123045442.25406  95879643.45706  23414754.640 6  23414754.621 7

  22016297.160 7 117648419.30107  91504381.18407                  22016311.774 7

  23744762.614 6 124779725.04706  97231041.63104  23744761.623 4

  22653018.785 6 119042582.15406  92760566.32407  22653027.187 7  22653027.559 7

  21299615.304 7 113538936.64407

  25803926.075 7 135600568.38707
  25803934.118 7 101260384.39207  25803931.480 7 103901891.28307
  26183252.136 6 137593938.48206
  26183264.745 5 102748767.18505  26183260.228 5 105429151.38605
  28050710.390 5 147407514.28205
  28050715.349 5 110077092.27605  28050714.952 6 112948655.09006
  23966761.743 8 125946242.66208
  23966770.291 8  94050850.08008  23966767.697 8  96504338.04408
  21777948.475 5 116456610.73805  90577483.69007                  21777959.369 7

  21682109.143 7 113940388.52307  88784790.86806  21682114.300 6

  20631499.397 7 110093661.13007

  20785638.828 8 111111235.93008  86419893.28508                  20785649.340 8

  25516202.730 6 134088743.30606
  25516205.627 6 100131359.24706  25516203.794 7 102743452.23007
  22991684.521 7 122774416.97007  95491382.85607                  22991691.960 7

                                  94142590.86205                  22619297.451 5

  25184499.182 7 132345608.22907
  25184509.401 7  98829659.59507  25184506.901 8 101407796.49008
 24  1 21 14 45 27.0000000  0 24G20G13E05G11G12E15G05G17R11G22G06R10
                                E03E27E08E30R20G19R06R05E02R09R21E34
  20157264.391 7 105927281.79007  82540832.31607  20157265.935 7

  24356574.529 6 127994671.06006  99736126.92403  24356573.106 3

  24785527.167 6 130248791.18006
  24785539.487 7  97263736.93807  24785536.691 7  99801034.94407
  21722733.109 7 114153886.46407  88951177.94205  21722738.939 5  21722739.033 7

  21503999.057 7 113004326.08407  88055352.49708  21504004.491 8  21504004.961 7

  25154742.560 6 132189139.92106
  25154754.982 7  98712827.03407  25154752.267 7 101287909.96207
  21514455.455 8 113059236.54008  88098146.24308  21514460.108 8  21514460.559 7

  23415085.234 6 123047218.91706  95881027.87106  23415092.699 6  23415092.584 7

  22016193.077 7 117647864.65207  91503949.79307                  22016207.992 7

  23745419.312 6 124783175.80206  97233730.53304  23745418.259 4

  22653320.463 6 119044167.69006  92761801.80907  22653328.891 7  22653329.335 7

  21300107.610 7 113541560.05107

  25803543.791 6 135598559.41006
  25803551.808 7 101258884.16707  25803549.216 7 103900351.93407
  26182941.270 6 137592306.06006
  26182954.171 5 102747548.19005  26182949.558 5 105427900.59205
  28050300.306 5 147405359.34405
  28050305.264 5 110075483.08305  28050304.866 6 112947003.92206
  23966916.847 8 125947057.73608
  23966925.414 8  94051458.74008  23966922.802 8  96504962.57708
  21777985.749 5 116456811.66605  90577639.98107                  21777997.087 7

  21682355.595 7 113941683.34407  88785799.81606  21682360.664 6

  20630920.357 7 110090571.56407

  20785854.119 8 111112386.42108  86420788.10908                  20785864.550 8

  25516732.579 7 134091527.10407
  25516735.449 7 100133438.03107  25516733.607 7 102745585.20807
  22992393.808 7 122778203.17707  95494327.70007                  22992400.815 7

  22619150.027 3                  94141776.94005                  22619101.954 5

  25184687.107 7 132346596.37607
  25184697.444 7  98830397.51107  25184694.942 8 101408553.65208
 24  1 21 14 45 28.0000000  0 24G20G13E05G11G12E15G05G17R11G22G06R10
                                E03E27E08E30R20G19R06R05E02R09R21E34
  20157333.064 7 105927642.62407  82541113.47807  20157334.623 7

  24356100.662 6 127992181.11006  99734186.71403  24356099.279 3

  24785436.433 6 130248314.14906
  24785448.668 7  97263380.72507  24785445.904 7  99800669.43707
  21722881.088 6 114154664.34106  88951784.08605  21722887.008 5  21722887.045 7

  21503793.094 7 113003244.16207  88054509.44708  21503798.617 8  21503799.008 7

  25154747.805 6 132189168.04706
  25154760.315 7  98712848.05707  25154757.624 7 101287931.52707
  21514017.020 8 113056932.64908  88096351.00308  21514021.693 8  21514022.297 7

  23415423.527 6 123048996.20406  95882412.77707  23415430.883 7  23415430.644 7

  22016089.179 7 117647311.05307  91503519.21307                  22016104.359 7

  23746075.944 6 124786626.94606  97236419.73604  23746074.988 4

  22653622.330 6 119045753.41506  92763037.43807  22653630.623 7  22653631.185 7

  21300599.891 7 113544184.19007

  25803161.625 6 135596550.78406
  25803169.589 7 101257384.20507  25803166.953 7 103898812.83607
  26182630.827 6 137590674.31206
  26182643.639 5 102746329.66105  26182639.048 5 105426650.28105
  28049890.258 5 147403204.52705
  28049895.312 5 110073873.94105  28049894.745 6 112945352.81906
  23967072.091 8 125947873.53408
  23967080.660 8  94052067.94108  23967078.062 8  96505587.67208
  21778023.153 5 116457012.79605  90577796.42407                  21778034.938 7

  21682602.142 7 113942978.84307  88786809.29206  21682607.171 6

  20630341.477 7 110087482.77807

  20786069.556 8 111113538.00808  86421683.79608                  20786079.989 8

  25517262.418 6 134094311.46306
  25517265.334 7 100135517.35807  25517263.536 8 102747718.76408
  22993102.932 7 122781989.58207  95497272.68407                  22993109.838 7

  22618953.965 4                  94140963.10704                  22618905.748 4

  25184875.127 7 132347584.72507
  25184885.532 7  98831135.56207  25184883.014 8 101409310.95608
 24  1 21 14 45 29.0000000  0 24G20G13E05G11G12E15G05G17R11G22G06R10
                                E03E27E08E30R20G19R06R05E02R09R21E34
  20157401.772 7 105928003.92907  82541395.00307  20157403.406 7

  24355626.945 6 127989690.94506  99732246.32003  24355625.412 3

  24785345.705 6 130247837.45006
  24785357.930 7  97263024.76307  24785355.203 7  99800304.18507
  21723029.138 6 114155442.25606  88952390.26105  21723035.086 5  21723035.065 7

  21503587.347 7 113002162.87507  88053666.89008  21503592.864 8  21503593.188 7

  25154753.176 6 132189196.20006
  25154765.693 7  98712869.07607  25154762.990 7 101287953.09607
  21513578.740 8 113054629.25708  88094556.15408  21513583.366 8  21513583.901 7

  23415761.988 6 123050773.84206  95883797.95706  23415769.135 6  23415768.891 7

  22015985.834 7 117646758.23507  91503089.23907                  22016000.982 7

  23746732.616 6 124790078.17906  97239108.99704  23746731.753 4

  22653924.060 6 119047339.08606  92764273.02907  22653932.346 7  22653933.064 7

  21301092.434 7 113546808.75007

  25802779.481 6 135594542.23606
  25802787.354 7 101255884.31607  25802784.738 7 103897273.81707
  26182320.451 6 137589042.90806
  26182333.156 5 102745111.38305  26182328.868 5 105425400.27105
  28049480.138 5 147401049.45105
  28049485.307 5 110072264.67505  28049484.631 6 112943701.54106
  23967227.439 8 125948689.77908
  23967235.990 8  94052677.46708  23967233.403 8  96506213.10208
  21778060.728 5 116457213.83105  90577952.78307                  21778072.618 7

  21682848.750 7 113944274.72407  88787819.07106  21682853.755 6

  20629762.747 7 110084394.48807

  20786285.128 8 111114690.42908  86422580.12308                  20786295.617 8

  25517792.223 7 134097095.77507
  25517795.158 7 100137596.59707  25517793.393 8 102749852.24108
  22993812.340 7 122785775.89207  95500217.60607                  22993818.780 7

  22618756.136 3                  94140149.12804                  22618710.573 4

  25185063.195 7 132348572.97907
  25185073.615 7  98831873.54807  25185071.083 8 101410068.19808
 24  1 21 14 45 30.0000000  0 24G20G13E05G11G12E15G05G17R11G22G06R10
                                E03E27E08E30R20G19R06R05E02R09R21E34
  20157470.621 7 105928365.81307  82541676.93607  20157472.287 7

  24355153.023 6 127987200.61206  99730305.80003  24355151.554 3

  24785255.033 6 130247361.22006
  24785267.326 7  97262669.14407  24785264.539 7  99799939.29107
  21723177.300 6 114156220.30406  88952996.54205  21723183.204 5  21723183.025 7

  21503381.744 7 113001082.31007  88052824.89308  21503387.246 8  21503387.601 7

  25154758.495 6 132189224.44406
  25154771.062 7  98712890.17407  25154768.312 7 101287974.75207
  21513140.551 8 113052326.41808  88092761.73708  21513145.152 8  21513145.803 7

  23416100.579 6 123052551.88506  95885183.44807  23416107.467 7  23416107.278 7

  22015882.741 7 117646206.27507  91502659.93007                  22015897.711 7

  23747389.529 6 124793529.60406  97241798.41304  23747388.612 4

  22654225.866 6 119048924.75806  92765508.62007  22654234.069 7  22654234.889 7

  21301584.907 7 113549433.83307

  25802397.306 6 135592533.85406
  25802405.195 7 101254384.53707  25802402.563 7 103895734.91607
  26182010.101 6 137587411.97406
  26182022.910 5 102743893.50205  26182018.386 5 105424150.57405
  28049069.947 5 147398894.23905
  28049075.148 5 110070655.28905  28049074.518 6 112942050.16506
  23967382.888 8 125949506.55808
  23967391.425 8  94053287.39808  23967388.846 8  96506838.94108
  21778099.018 5 116457414.83905  90578109.14507                  21778110.417 7

  21683095.545 7 113945571.08007  88788829.21706  21683100.418 6

  20629183.888 7 110081306.80007

  20786501.014 8 111115843.77408  86423477.16608                  20786511.360 8

  25518322.070 7 134099880.32707
  25518324.986 8 100139675.87508  25518323.212 8 102751985.78408
  22994521.392 7 122789562.21207  95503162.53507                  22994527.798 7

  22618560.542 4                  94139335.14904                  22618514.890 4

  25185251.213 7 132349561.24207
  25185261.638 7  98832611.54007  25185259.135 8 101410825.43408
 24  1 21 14 45 31.0000000  0 24G20G13E05G11G12E15G05G17R11G22G06R10
                                E03E27E08E30R20G19R06R05E02R09R21E34
  20157539.585 7 105928727.95207  82541959.08307  20157541.212 7

  24354679.212 6 127984709.75906  99728364.88403  24354677.576 3

  24785164.329 6 130246885.03606
  24785176.655 7  97262313.56407  24785173.978 7  99799574.43707
  21723325.404 7 114156998.11007  88953602.63405  21723331.282 5  21723331.070 7

  21503176.171 7 113000002.08507  88051983.16508  21503181.694 8  21503182.051 7

  25154763.784 6 132189252.41006
  25154776.348 7  98712911.06807  25154773.628 7 101287996.18207
  21512702.402 8 113050023.76708  88090967.46508  21512706.969 8  21512707.686 7

  23416438.892 6 123054329.97406  95886568.97707  23416445.803 7  23416445.738 7

  22015779.846 7 117645654.78907  91502230.98207                  22015794.450 7

  23748046.320 6 124796980.83106  97244487.67704  23748045.408 4

  22654527.540 6 119050510.06206  92766743.92607  22654535.724 7  22654536.497 7

  21302077.266 7 113552059.05207

  25802015.147 6 135590525.26306
  25802022.973 7 101252884.61607  25802020.371 7 103894195.86507
  26181699.617 6 137585781.09206
  26181712.436 5 102742675.64605  26181708.085 5 105422900.95805
  28048659.690 5 147396738.54005
  28048664.902 5 110069045.49605  28048664.327 6 112940398.41306
  23967538.358 8 125950323.48108
  23967546.887 8  94053897.43508  23967544.319 8  96507464.89508
  21778137.224 5 116457615.50705  90578265.19507                  21778147.921 7

  21683342.408 7 113946867.54107  88789839.44406  21683347.109 6

  20628605.171 7 110078219.29807

  20786716.949 8 111116997.66108  86424374.63608                  20786727.290 8

  25518851.839 7 134102664.53207
  25518854.752 7 100141754.92307  25518852.992 8 102754119.03108
  22995230.190 7 122793348.13907  95506107.14107                  22995236.753 7

  22618364.435 3                  94138520.83204                  22618319.009 4

  25185439.205 7 132350549.11107
  25185449.628 7  98833349.23707  25185447.099 8 101411582.38008
 24  1 21 14 45 32.0000000  0 24G20G13E05G11G12E15G05G17R11G22G06R10
                                E03E27E08E30R20G19R06R05E02R09R21E34
  20157608.576 7 105929090.54507  82542241.56507  20157610.223 7

  24354204.896 6 127982218.65006  99726423.77003  24354203.588 3

  24785073.772 6 130246409.17206
  24785086.063 7  97261958.23207  24785083.442 7  99799209.82207
  21723473.286 7 114157775.91407  88954208.72405  21723479.360 5  21723479.076 7

  21502970.750 7 112998922.44907  88051141.89408  21502976.250 8  21502976.591 7

  25154769.141 6 132189280.37006
  25154781.673 7  98712931.94507  25154778.919 7 101288017.60607
  21512264.369 8 113047721.56408  88089173.54208  21512268.870 8  21512269.494 7

  23416777.534 6 123056108.35406  95887954.72907  23416784.193 7  23416784.240 7

  22015676.762 7 117645104.04507  91501802.61407                  22015691.435 7

  23748703.012 6 124800432.10406  97247176.97804  23748702.214 4

  22654829.211 6 119052095.25806  92767979.14407  22654837.353 7  22654838.201 7

  21302569.902 7 113554684.66407

  25801632.896 6 135588516.71006
  25801640.757 7 101251384.70807  25801638.135 7 103892656.83007
  26181389.257 6 137584150.54206
  26181402.196 5 102741458.01705  26181397.851 5 105421651.57605
  28048249.338 5 147394582.59505
  28048254.576 5 110067435.55005  28048254.096 6 112938746.46306
  23967693.916 8 125951140.80308
  23967702.406 8  94054507.77908  23967699.866 8  96508091.15808
  21778174.415 5 116457816.05905  90578421.16107                  21778185.575 7

  21683589.115 7 113948164.33707  88790849.93206  21683593.848 6

  20628026.342 7 110075132.24307

  20786932.921 8 111118152.36708  86425272.73908                  20786943.404 8

  25519381.658 6 134105448.92406
  25519384.629 6 100143834.20306  25519382.916 7 102756252.58807
  22995939.088 7 122797133.92107  95509051.64807                  22995945.664 7

  22618167.822 4                  94137706.39904                  22618121.733 4

  25185627.150 7 132351536.85407
  25185637.621 7  98834086.84307  25185635.057 8 101412339.22808
 24  1 21 14 45 33.0000000  0 24G20G13E05G11G12E15G05G17R11G22G06R10
                                E03E27E08E30R20G19R06R05E02R09R21E34
  20157677.757 7 105929453.96007  82542524.68307  20157679.399 7

  24353730.816 6 127979727.64206  99724482.73703  24353729.547 3

  24784983.274 6 130245933.99506
  24784995.575 7  97261603.38907  24784993.053 7  99798845.72907
  21723621.429 7 114158554.09407  88954815.10505  21723627.478 5  21723627.001 7

  21502765.514 7 112997843.77807  88050301.37408  21502770.985 8  21502771.215 7

  25154774.540 6 132189308.64706
  25154787.056 7  98712953.06407  25154784.307 7 101288039.28407
  21511826.465 8 113045420.15908  88087380.24008  21511830.920 8  21511831.625 7

  23417116.261 6 123057887.38806  95889340.99207  23417122.717 7  23417122.826 7

  22015574.002 7 117644554.38407  91501375.11007                  22015588.672 7

  23749359.876 6 124803883.82306  97249866.62804  23749359.095 4

  22655130.911 6 119053680.69206  92769214.55107  22655139.027 7  22655139.849 7

  21303062.363 7 113557311.04107

  25801250.779 6 135586508.55506
  25801258.589 7 101249885.11007  25801255.994 7 103891118.11807
  26181079.071 6 137582520.68306
  26181091.894 5 102740240.92505  26181087.779 5 105420402.71905
  28047839.090 5 147392426.75005
  28047844.317 5 110065825.68805  28047843.883 6 112937094.59206
  23967849.602 8 125951958.89608
  23967858.072 8  94055118.69108  23967855.540 8  96508718.00908
  21778212.047 5 116458016.79505  90578577.32007                  21778222.886 7

  21683836.172 7 113949461.85407  88791860.98206  21683840.722 6

  20627447.737 7 110072046.03107

  20787149.122 8 111119308.26408  86426171.77108                  20787159.522 8

  25519911.725 6 134108233.81006
  25519914.441 7 100145913.62207  25519912.855 7 102758386.28907
  22996648.163 7 122800919.94407  95511996.33807                  22996654.829 7

  22617973.253 3                  94136892.18104                  22617925.375 4

  25185815.317 7 132352524.84307
  25185825.611 7  98834824.61907  25185823.073 8 101413096.25808
 24  1 21 14 45 34.0000000  0 24G20G13E05G11G12E15G05G17R11G22G06R10
                                E03E27E08E30R20G19R06R05E02R09R21E34
  20157747.170 7 105929817.92107  82542808.22507  20157748.682 7

  24353256.657 6 127977236.41106  99722541.52703  24353255.452 3

  24784892.875 6 130245459.16906
  24784905.147 7  97261248.81707  24784902.740 7  99798481.90407
  21723769.570 7 114159332.30907  88955421.51405  21723775.596 5  21723775.106 7

  21502560.370 7 112996765.74407  88049461.35208  21502565.840 8  21502566.085 7

  25154779.892 6 132189336.95706
  25154792.459 7  98712974.21607  25154789.741 7 101288060.98007
  21511388.650 8 113043119.23908  88085587.31708  21511393.067 8  21511393.805 7

  23417454.828 6 123059666.75606  95890727.52407  23417461.309 7  23417461.400 7

  22015471.422 7 117644005.49407  91500948.18107                  22015485.659 7

  23750016.790 6 124807335.65006  97252556.36404  23750015.985 4

  22655432.583 6 119055266.06406  92770449.90907  22655440.696 7  22655441.415 7

  21303555.421 7 113559937.86507

  25800868.573 6 135584500.49906
  25800876.482 7 101248385.58807  25800873.880 7 103889579.47807
  26180769.035 6 137580891.20306
  26180781.696 5 102739024.09805  26180777.691 5 105419154.17405
  28047428.837 5 147390270.68405
  28047434.103 5 110064215.66205  28047433.610 6 112935442.56506
  23968005.371 8 125952777.44008
  23968013.804 8  94055729.93708  23968011.311 8  96509345.20208
  21778249.841 5 116458217.51505  90578733.41507                  21778260.240 7

  21684083.142 7 113950759.76707  88792872.34106  21684087.663 6

  20626869.623 7 110068960.32607

  20787365.634 8 111120465.01108  86427071.46708                  20787375.850 8

  25520441.679 7 134111018.84607
  25520444.540 7 100147993.34507  25520442.875 8 102760520.24508
  22997356.959 7 122804705.85207  95514940.94307                  22997363.841 7

                                  94136077.72604                  22617729.471 4

  25186003.417 7 132353512.74007
  25186013.573 7  98835562.34807  25186011.042 8 101413853.21908
 24  1 21 14 45 35.0000000  0 24G20G13E05G11G12E15G05G17R11G22G06R10
                                E03E27E08E30R20G19R06R05E02R09R21E34
  20157816.590 7 105930182.30307  82543092.10007  20157818.037 7

  24352782.687 6 127974744.76806  99720599.99403  24352781.362 3

  24784802.603 6 130244984.50906
  24784814.739 7  97260894.37007  24784812.456 7  99798118.21607
  21723917.636 7 114160110.40607  88956027.83205  21723923.723 5  21723923.150 7

  21502355.296 7 112995688.16807  88048621.68708  21502360.794 8  21502361.013 7

  25154785.212 6 132189365.10406
  25154797.783 7  98712995.23907  25154795.095 7 101288082.55107
  21510950.810 8 113040818.61308  88083794.62308  21510955.269 8  21510956.101 7

  23417793.415 6 123061446.26506  95892114.16207  23417799.918 7  23417800.065 7

  22015368.992 7 117643457.20407  91500521.73707                  22015383.136 7

  23750673.677 6 124810787.39806  97255246.04404  23750672.840 4

  22655734.270 6 119056851.18206  92771685.06807  22655742.307 7  22655743.196 7

  21304048.059 7 113562564.95507

  25800486.369 6 135582492.33306
  25800494.335 7 101246885.99207  25800491.752 7 103888040.76107
  26180458.990 6 137579261.88806
  26180471.686 5 102737807.41505  26180467.615 5 105417905.71905
  28047018.512 5 147388114.26105
  28047023.804 5 110062605.34605  28047023.252 6 112933790.23106
  23968161.224 8 125953596.24808
  23968169.599 8  94056341.38208  23968167.135 8  96509972.59908
  21778287.176 5 116458417.93805  90578889.31107                  21778297.762 7

  21684330.118 7 113952057.89007  88793883.86506  21684334.644 6

  20626291.533 7 110065874.92307

  20787582.208 8 111121622.42608  86427971.68608                  20787592.304 8

  25520971.774 6 134113803.91506
  25520974.584 7 100150073.11607  25520972.945 7 102762654.28407
  22998065.811 7 122808491.48607  95517885.33907                  22998072.761 7

                                  94135263.08004                  22617534.449 4

  25186191.468 7 132354500.37807
  25186201.522 7  98836299.86707  25186198.996 8 101414609.98008
 24  1 21 14 45 36.0000000  0 24G20G13E05G11G12E15G05G17R11G22G06R10
                                E03E27E08E30R20G19R06R05E02R09R21E34
  20157886.055 7 105930547.16907  82543376.37207  20157887.490 7

  24352308.515 6 127972252.79506  99718658.20203  24352307.115 3

  24784712.333 6 130244510.10806
  24784724.517 7  97260540.12807  24784722.191 7  99797754.72407
  21724065.656 7 114160888.42107  88956634.08605  21724071.823 5  21724071.150 7

  21502150.298 7 112994611.11507  88047782.43008  21502155.842 8  21502156.043 7

  25154790.584 6 132189393.14206
  25154803.086 7  98713016.20207  25154800.428 7 101288104.05207
  21510513.033 7 113038518.36307  88082002.22408  21510517.546 8  21510518.330 7

  23418132.065 6 123063226.00506  95893500.97707  23418138.572 7  23418138.828 7

  22015266.795 7 117642909.55607  91500095.79307                  22015280.713 7

  23751330.469 6 124814239.13206  97257935.71104  23751329.681 4

  22656035.987 6 119058436.11006  92772920.08007  22656043.886 7  22656044.822 7

  21304540.970 7 113565192.37207

  25800104.241 6 135580484.14006
  25800112.173 7 101245386.36807  25800109.584 7 103886502.01307
  26180148.973 6 137577632.84606
  26180161.637 5 102736590.91505  26180157.600 5 105416657.52305
  28046608.049 5 147385957.50705
  28046613.427 5 110060994.78905  28046612.870 6 112932137.65506
  23968317.115 8 125954415.39008
  23968325.509 8  94056953.07708  23968323.034 8  96510600.25208
  21778325.273 5 116458618.15905  90579045.04507                  21778335.018 7

  21684577.177 7 113953356.29407  88794895.60906  21684581.679 6

  20625713.486 7 110062789.90207

  20787798.838 8 111122780.57708  86428872.47208                  20787808.997 8

  25521501.791 6 134116588.99706
  25521504.616 7 100152152.78607  25521502.978 8 102764788.22108
  22998774.348 7 122812276.91407  95520829.56807                  22998781.620 7

                                  94134448.18204                  22617337.452 4

  25186379.363 7 132355487.80807
  25186389.371 7  98837037.23207  25186386.888 8 101415366.59008
 24  1 21 14 45 37.0000000  0 24G20G13E05G11G12E15G05G17R11G22G06R10
                                E03E27E08E30R20G19R06R05E02R09R21E34
  20157955.619 8 105930912.42308  82543660.95607  20157957.042 7

  24351834.377 6 127969760.51806  99716716.16603  24351832.864 3

  24784622.060 6 130244035.98106
  24784634.276 7  97260186.08007  24784631.976 7  99797391.44107
  21724213.642 7 114161666.42907  88957240.33405  21724219.918 5  21724219.173 7

  21501945.511 7 112993534.64507  88046943.62408  21501951.001 8  21501951.091 7

  25154795.891 6 132189421.15906
  25154808.397 7  98713037.11007  25154805.731 7 101288125.51707
  21510075.335 8 113036218.53908  88080210.15808  21510079.899 8  21510080.725 7

  23418470.802 6 123065006.03406  95894888.02007  23418477.288 7  23418477.622 7

  22015164.554 7 117642362.61007  91499670.38007                  22015178.395 7

  23751987.188 6 124817690.90006  97260625.39404  23751986.544 4

  22656337.602 6 119060020.90106  92774154.98407  22656345.439 7  22656346.419 7

  21305033.827 7 113567820.16407

  25799722.101 6 135578475.95706
  25799730.034 7 101243886.75007  25799727.416 7 103884963.27707
  26179839.009 6 137576004.11006
  26179851.775 5 102735374.65405  26179847.851 5 105415409.52505
  28046197.707 5 147383800.44305
  28046202.935 5 110059384.03005  28046202.405 6 112930484.87106
  23968473.109 8 125955234.91108
  23968481.487 8  94057565.05608  23968478.985 8  96511228.19108
  21778362.890 5 116458818.23405  90579200.67807                  21778372.520 7

  21684824.439 7 113954655.02207  88795907.60206  21684828.794 6

  20625135.673 7 110059705.33507

  20788015.487 8 111123939.49108  86429773.85508                  20788025.810 8

  25522031.755 7 134119374.07707
  25522034.688 7 100154232.46307  25522033.006 8 102766922.17008
  22999483.267 7 122816062.17307  95523773.67507                  22999490.622 7

                                  94133633.19204                  22617141.719 4

  25186567.271 7 132356475.09007
  25186577.254 7  98837774.49607  25186574.773 8 101416123.08308
 24  1 21 14 45 38.0000000  0 24G20G13E05G11G12E15G05G17R11G22G06R10
                                E03E27E08E30R20G19R06R05E02R09R21E34
  20158025.200 7 105931278.01207  82543945.78907  20158026.660 7

  24351359.819 6 127967267.89506  99714773.87203  24351358.572 3

  24784531.835 6 130243562.08306
  24784544.066 7  97259832.21107  24784541.802 7  99797028.33807
  21724361.675 7 114162444.34707  88957846.51005  21724367.987 5  21724367.274 7

  21501740.772 8 112992458.65308  88046105.19308  21501746.250 8  21501746.357 7

  25154801.193 6 132189449.01706
  25154813.676 7  98713057.93307  25154811.089 7 101288146.87507
  21509637.752 8 113033919.05008  88078418.35408  21509642.315 8  21509643.168 7

  23418809.423 6 123066786.20806  95896275.17307  23418816.027 7  23418816.308 7

  22015062.328 7 117641816.30707  91499245.46807                  22015076.050 7

  23752644.108 6 124821142.63206  97263315.04404  23752643.466 4

  22656639.260 6 119061605.48606  92775389.72507  22656646.956 7  22656648.050 7

  21305526.935 7 113570448.24307

  25799339.930 6 135576467.71306
  25799347.888 7 101242387.09407  25799345.261 7 103883424.50007
  26179528.996 6 137574375.59606
  26179541.762 5 102734158.55805  26179538.056 5 105414161.71505
  28045787.287 5 147381643.07005
  28045792.266 5 110057772.99305  28045791.822 6 112928831.81606
  23968629.074 8 125956054.73408
  23968637.487 8  94058177.25708  23968635.003 8  96511856.36608
  21778400.712 5 116459018.11805  90579356.14507                  21778409.986 7

  21685071.685 7 113955953.99707  88796919.79006  21685075.941 6

  20624557.823 7 110056621.10007

  20788232.310 8 111125099.09308  86430675.77408                  20788242.822 8

  25522561.755 7 134122159.14807
  25522564.788 7 100156312.11907  25522563.060 8 102769056.08008
  23000192.369 7 122819847.23507  95526717.60407                  23000199.585 7

                                  94132817.90904                  22616947.351 4

  25186755.017 7 132357462.14607
  25186765.078 7  98838511.58407  25186762.634 8 101416879.39708
 24  1 21 14 45 39.0000000  0 24G20G13E05G11G12E15G05G17R11G22G06R10
                                E03E27E08E30R20G19R06R05E02R09R21E34
  20158094.886 7 105931644.37907  82544231.21607  20158096.404 7

  24350885.438 6 127964775.28206  99712831.57603  24350884.169 3

  24784441.693 6 130243088.79406
  24784454.035 7  97259478.78807  24784451.736 7  99796665.69307
  21724509.726 7 114163222.55507  88958452.91405  21724516.105 5  21724515.351 7

  21501536.192 8 112991383.55308  88045267.45708  21501541.669 8  21501541.830 7

  25154806.583 6 132189477.15606
  25154819.090 7  98713078.95807  25154816.420 7 101288168.44407
  21509200.297 8 113031620.29508  88076627.12308  21509204.879 8  21509205.686 7

  23419148.202 6 123068566.99606  95897662.80207  23419154.878 7  23419155.105 7

  22014960.349 7 117641271.02107  91498821.34807                  22014973.994 7

  23753301.098 6 124824594.70706  97266004.96704  23753300.410 4

  22656940.766 6 119063190.22806  92776624.59107  22656948.504 7  22656949.601 7

  21306019.924 7 113573077.02607

  25798957.810 6 135574459.79606
  25798965.740 7 101240887.65607  25798963.146 7 103881885.94807
  26179219.189 6 137572747.68806
  26179232.058 5 102732942.91905  26179228.305 5 105412914.34005
  28045376.681 5 147379485.71805
  28045381.711 5 110056161.96905  28045381.322 6 112927178.78206
  23968785.199 8 125956875.24408
  23968793.649 8  94058789.97808  23968791.138 8  96512485.06708
  21778437.882 5 116459218.17305  90579511.72907                  21778447.344 7

  21685318.908 7 113957253.60407  88797932.47206  21685323.213 6

  20623979.995 7 110053537.64907

  20788449.298 8 111126259.77608  86431578.52508                  20788459.991 8

  25523091.867 6 134124944.57006
  25523095.006 6 100158392.06606  25523093.194 7 102771190.23407
  23000901.405 7 122823632.39607  95529661.63007                  23000908.245 7

                                  94132002.82403                  22616751.725 3

  25186942.865 7 132358449.36007
  25186952.922 7  98839248.78807  25186950.502 8 101417635.83108
 24  1 21 14 45 40.0000000  0 23G20G13E05G11G12E15G05G17R11G22G06R10
                                E03E27E08E30R20G19R06R05E02R09E34
  20158164.848 7 105932011.58207  82544517.31307  20158166.305 7

  24350411.020 6 127962282.59306  99710889.23703  24350409.935 3

  24784351.649 6 130242615.98906
  24784364.107 7  97259125.73707  24784361.778 7  99796303.43107
  21724657.917 7 114164000.95107  88959059.46305  21724664.264 5  21724663.440 7

  21501331.849 8 112990309.23008  88044430.32608  21501337.231 8  21501337.301 7

  25154811.958 6 132189505.46106
  25154824.481 7  98713100.08507  25154821.841 7 101288190.13007
  21508762.967 8 113029322.16708  88074836.38308  21508767.559 8  21508768.210 7

  23419487.103 6 123070348.25006  95899050.79907  23419493.818 7  23419494.072 7

  22014858.868 7 117640726.63907  91498397.93807                  22014872.088 7

  23753958.029 6 124828047.03206  97268695.09404  23753957.426 4

  22657242.284 6 119064775.05006  92777859.51907  22657250.075 7  22657251.235 7

  21306513.342 7 113575706.42707

  25798575.768 6 135572452.09806
  25798583.699 7 101239388.41307  25798581.100 7 103880347.59607
  26178909.379 6 137571120.28606
  26178922.325 5 102731727.64805  26178918.556 5 105411667.38305
  28044966.253 5 147377328.25805
  28044971.192 5 110054550.92605  28044970.758 6 112925525.68106
  23968941.416 8 125957696.34308
  23968949.919 8  94059403.12908  23968947.397 8  96513114.21908
  21778474.868 5 116459418.25705  90579667.35007                  21778484.810 7

  21685566.404 7 113958553.75907  88798945.57906  21685570.583 6

  20623402.296 7 110050454.81407

  20788666.524 8 111127421.45708  86432482.05908                  20788677.402 8

  25523621.965 6 134127730.40006
  25523625.200 7 100160472.33707  25523623.379 7 102773324.82907
  23001610.277 7 122827417.64307  95532605.71807                  23001616.982 7

  25187130.628 7 132359436.63007
  25187140.809 7  98839986.02707  25187138.383 8 101418392.31108
 24  1 21 14 45 41.0000000  0 24G20G13E05G11G12E15G05G17R11G22G06R10
                                E03E27E08E30R20G19R06R05E02R09R21E34
  20158234.702 7 105932378.73507  82544803.38707  20158236.205 7

  24349936.649 6 127959789.20706  99708946.34503  24349935.492 3

  24784261.529 6 130242143.08106
  24784274.032 7  97258772.59607  24784271.787 7  99795941.08007
  21724806.016 7 114164778.91907  88959665.68105  21724812.332 5  21724811.558 7

  21501127.407 8 112989235.06808  88043593.31908  21501132.828 8  21501132.846 7

  25154817.324 6 132189533.30006
  25154829.720 7  98713120.88607  25154827.117 7 101288211.46607
  21508325.659 8 113027024.04408  88073045.64908  21508330.247 8  21508330.893 7

  23419826.012 6 123072129.34806  95900438.67207  23419832.731 7  23419832.983 7

  22014757.521 7 117640182.57107  91497974.76307                  22014770.282 7

  23754614.995 6 124831498.97906  97271384.93304  23754614.374 4

  22657543.974 6 119066359.33306  92779094.02707  22657551.543 7  22657552.712 7

  21307006.674 7 113578335.77707

  25798193.706 6 135570443.99606
  25798201.565 7 101237888.85707  25798198.959 7 103878808.91107
  26178599.730 6 137569492.79606
  26178612.529 5 102730512.32105  26178608.911 5 105410420.34705
  28044555.712 5 147375170.16605
  28044560.590 5 110052939.35605  28044560.030 7 112923872.09407
  23969097.619 8 125958517.41108
  23969106.144 8  94060016.26908  23969103.660 8  96513743.35108
  21778511.824 5 116459617.79505  90579822.55707                  21778522.379 7

  21685813.793 7 113959853.82207  88799958.61206  21685817.944 6

  20622824.670 7 110047372.00107

  20788883.930 8 111128583.51308  86433385.87808                  20788894.833 8

  25524152.021 6 134130515.92006
  25524155.375 6 100162552.34406  25524153.545 7 102775459.10207
  23002318.772 7 122831202.32707  95535549.36607                  23002325.598 7

                                                                  22616360.862 3

  25187318.296 7 132360423.32007
  25187328.598 7  98840722.86107  25187326.155 8 101419148.36008
 24  1 21 14 45 42.0000000  0 24G20G13E05G11G12E15G05G17R11G22G06R10
                                E03E27E08E30R20G19R06R05E02R09R21E34
  20158304.651 7 105932746.10107  82545089.62407  20158306.159 7

  24349462.115 6 127957295.33106  99707003.07603  24349460.972 3

  24784171.561 6 130241670.24806
  24784184.112 7  97258419.52507  24784181.788 7  99795578.78607
  21724954.006 7 114165556.65407  88960271.71605  21724960.343 5  21724959.587 7

  21500922.985 8 112988161.27508  88042756.60308  21500928.493 8  21500928.367 7

  25154822.537 7 132189560.87707
  25154834.967 7  98713141.50107  25154832.362 7 101288232.60707
  21507888.348 8 113024726.14208  88071255.08308  21507892.972 8  21507893.612 7

  23420165.019 6 123073910.52806  95901826.60807  23420171.649 7  23420171.911 7

  22014655.819 7 117639638.97907  91497551.96907                  22014668.758 7

  23755271.919 6 124834950.77406  97274074.64404  23755271.296 4

  22657845.328 6 119067943.26506  92780328.26207  22657852.948 7  22657854.104 7

  21307500.113 7 113580965.29607

  25797811.643 6 135568435.72606
  25797819.412 7 101236389.17007  25797816.808 7 103877270.11107
  26178290.135 6 137567865.37606
  26178302.872 5 102729297.03505  26178299.190 5 105409173.35805
  28044145.099 5 147373011.56905
  28044149.862 5 110051327.42905  28044149.268 7 112922218.11007
  23969253.860 8 125959338.65808
  23969262.439 8  94060629.53708  23969259.936 8  96514372.61508
  21778548.108 5 116459816.98905  90579977.47907                  21778559.758 7

  21686061.180 7 113961154.02407  88800971.75306  21686065.319 6

  20622246.960 7 110044289.44507

  20789101.347 8 111129746.14108  86434290.14508                  20789112.391 8

  25524682.241 6 134133301.54406
  25524685.199 7 100164631.67907  25524683.647 7 102777593.70507
  23003027.373 7 122834986.64607  95538492.72307                  23003034.254 7

  22616166.780 3                                                  22616162.550 4

  25187506.005 7 132361409.67807
  25187516.274 7  98841459.43207  25187513.828 8 101419904.13808
 24  1 21 14 45 43.0000000  0 24G20G13E05G11G12E15G05G17R11G22G06R10
                                E03E27E08E30R20G19R06R05E02R09R21E34
  20158374.719 7 105933114.03007  82545376.28007  20158376.212 7

  24348987.617 6 127954801.23806  99705059.63603  24348986.399 3

  24784081.736 6 130241197.80206
  24784094.233 7  97258066.72107  24784091.874 7  99795216.79107
  21725101.989 7 114166334.47407  88960877.81805  21725108.363 5  21725107.585 7

  21500718.749 8 112987088.14808  88041920.40308  21500724.287 8  21500724.127 7

  25154827.783 7 132189588.50707
  25154840.168 7  98713162.13107  25154837.603 7 101288253.78707
  21507451.136 8 113022428.73908  88069464.91008  21507455.799 8  21507456.369 7

  23420504.152 6 123075692.07206  95903214.83107  23420510.638 7  23420510.882 7

  22014554.192 7 117639096.18407  91497129.79407                  22014567.124 7

  23755928.924 6 124838402.67906  97276764.44204  23755928.181 4

  22658146.901 6 119069527.14006  92781562.45407  22658154.340 7  22658155.484 7

  21307993.684 7 113583595.27707

  25797429.479 6 135566427.53806
  25797437.267 7 101234889.56107  25797434.641 7 103875731.37507
  26177980.424 6 137566238.37806
  26177993.248 5 102728082.06705  26177989.602 5 105407926.72305
  28043734.254 5 147370852.80205
  28043739.115 5 110049715.37905  28043738.480 7 112920563.98307
  23969410.210 8 125960160.37208
  23969418.822 8  94061243.15508  23969416.298 8  96515002.24708
  21778585.190 5 116460016.07305  90580132.36607                  21778597.047 7

  21686308.650 7 113962454.61907  88801985.20506  21686312.769 6

  20621669.525 7 110041207.43907

  20789318.965 8 111130909.65708  86435195.10408                  20789330.134 8

  25525212.295 7 134136087.14107
  25525215.413 7 100166711.89407  25525213.781 8 102779728.17308
  23003735.991 7 122838770.88007  95541436.01907                  23003742.981 7

  22615970.382 3                                                  22615966.541 4

  25187693.608 7 132362395.96807
  25187703.965 7  98842195.94307  25187701.499 8 101420659.86808
 24  1 21 14 45 44.0000000  0 24G20G13E05G11G12E15G05G17R11G22G06R10
                                E03E27E08E30R20G19R06R05E02R09R21E34
  20158444.837 7 105933482.62607  82545663.46207  20158446.380 7

  24348512.841 6 127952307.00206  99703116.07303  24348511.763 3

  24783991.895 6 130240725.75806
  24784004.402 7  97257714.24707  24784002.040 7  99794855.11007
  21725249.892 7 114167112.40307  88961484.00405  21725256.405 5  21725255.600 7

  21500514.649 8 112986015.72108  88041084.75108  21500520.207 8  21500520.051 7

  25154833.057 7 132189616.22807
  25154845.472 7  98713182.83307  25154842.939 7 101288275.02907
  21507013.999 8 113020131.85308  88067675.14108  21507018.725 8  21507019.286 7

  23420843.228 6 123077474.00106  95904603.35307  23420849.703 7  23420850.006 7

  22014452.474 7 117638554.24707  91496708.28507                  22014465.390 7

  23756585.813 6 124841854.77106  97279454.37704  23756585.112 4

  22658448.086 6 119071111.01806  92782796.64707  22658455.741 7  22658456.890 7

  21308487.399 7 113586225.76507

  25797047.408 6 135564419.51406
  25797055.156 7 101233390.06207  25797052.561 7 103874192.76107
  26177670.914 6 137564611.79206
  26177683.828 5 102726867.41505  26177680.163 5 105406680.36205
  28043323.365 5 147368693.88505
  28043328.365 5 110048103.21905  28043327.683 6 112918909.75206
  23969566.667 8 125960982.59908
  23969575.342 8  94061857.15108  23969572.767 8  96515632.25908
  21778622.780 5 116460215.22605  90580287.22107                  21778634.242 7

  21686556.200 7 113963755.69507  88802999.02806  21686560.305 6

  20621091.916 7 110038125.99807

  20789536.855 8 111132074.07608  86436100.76408                  20789548.016 8

  25525742.411 6 134138872.99506
  25525745.639 7 100168792.30107  25525743.925 8 102781862.84208
  23004444.826 7 122842555.05807  95544379.27607                  23004451.387 7

  22615776.425 3                                                  22615770.174 4

  25187881.302 7 132363382.22807
  25187891.645 7  98842932.44007  25187889.191 8 101421415.58208
 24  1 21 14 45 45.0000000  0 24G20G13E05G11G12E15G05G17R11G22G06R10
                                E03E27E08E30R20G19R06R05E02R09R21E34
  20158515.155 7 105933851.84207  82545951.14007  20158516.665 7

  24348038.110 6 127949812.60406  99701172.38803  24348037.104 3

  24783902.163 6 130240254.13806
  24783914.603 7  97257362.05707  24783912.264 7  99794493.74107
  21725397.914 7 114167890.43607  88962090.27205  21725404.465 5  21725403.638 7

  21500310.567 8 112984943.98608  88040249.63608  21500316.256 8  21500316.140 7

  25154838.332 7 132189644.00307
  25154850.722 7  98713203.58707  25154848.185 7 101288296.31807
  21506577.017 8 113017835.52108  88065885.79609  21506581.753 9  21506582.282 7

  23421182.385 6 123079256.32706  95905992.18507  23421188.844 7  23421189.156 7

  22014351.032 7 117638013.14907  91496287.43607                  22014364.179 7

  23757242.783 6 124845307.01606  97282144.43804  23757242.078 4

  22658749.362 6 119072694.86806  92784030.81807  22658757.142 7  22658758.267 7

  21308980.953 7 113588856.74607

  25796665.293 6 135562411.62706
  25796673.066 7 101231890.66407  25796670.453 7 103872654.24807
  26177361.391 6 137562985.62406
  26177374.425 5 102725653.09705  26177370.647 5 105405434.34605
  28042912.499 5 147366534.82405
  28042917.482 5 110046490.91705  28042916.913 6 112917255.40706
  23969723.205 8 125961805.31908
  23969731.950 8  94062471.52008  23969729.318 8  96516262.65308
  21778660.258 5 116460414.28405  90580442.06507                  21778671.407 7

  21686803.825 7 113965057.19707  88804013.18606  21686807.934 6

  20620514.472 7 110035045.08407

  20789754.922 8 111133239.39008  86437007.12408                  20789765.984 8

  25526272.447 7 134141658.89807
  25526275.743 7 100170872.48307  25526273.971 8 102783997.32208
  23005153.600 7 122846339.21507  95547322.51707                  23005160.137 7

  22615583.640 3                                                  22615575.524 4

  25188068.919 7 132364368.46607
  25188079.313 7  98843668.91707  25188076.874 8 101422171.27008
 24  1 21 14 45 46.0000000  0 24G20G13E05G11G12E15G05G17R11G22G06R10
                                E03E27E08E30R20G19R06R05E02R09R21E34
  20158585.564 7 105934221.69307  82546239.33107  20158587.089 7

  24347563.292 6 127947318.02306  99699228.57203  24347562.491 3

  24783812.463 6 130239782.93006
  24783824.908 7  97257010.19907  24783822.565 7  99794132.69607
  21725545.969 6 114168668.57506  88962696.62205  21725552.542 5  21725551.765 7

  21500106.740 8 112983872.94908  88039415.06508  21500112.440 8  21500112.446 7

  25154843.701 7 132189671.86207
  25154856.033 7  98713224.39007  25154853.487 7 101288317.66707
  21506140.100 7 113015539.74807  88064096.88908  21506144.885 8  21506145.387 7

  23421521.676 6 123081039.07306  95907381.34207  23421528.066 7  23421528.335 7

  22014249.970 7 117637472.86407  91495867.21807                  22014262.986 7

  23757899.858 6 124848759.42406  97284834.61804  23757899.080 4

  22659050.873 6 119074278.70206  92785264.97607  22659058.538 7  22659059.559 7

  21309474.799 7 113591488.23407

  25796283.204 6 135560403.87306
  25796290.996 7 101230391.36707  25796288.391 7 103871115.83307
  26177051.971 6 137561359.90906
  26177064.999 5 102724439.05005  26177061.392 5 105404188.65905
  28042501.572 5 147364375.58005
  28042506.554 5 110044878.51905  28042506.053 7 112915600.94207
  23969879.808 8 125962628.54308
  23969888.604 8  94063086.26208  23969886.001 8  96516893.43108
  21778697.162 5 116460613.38005  90580596.89407                  21778708.562 7

  21687051.664 7 113966359.15707  88805027.69606  21687055.658 6

  20619937.232 7 110031964.69507

  20789973.268 8 111134405.61408  86437914.19108                  20789984.016 8

  25526802.646 7 134144445.05207
  25526806.019 7 100172953.14507  25526804.203 8 102786132.22608
  23005862.115 7 122850123.34907  95550265.73907                  23005868.796 7

                                                                  22615381.286 4

  25188256.601 7 132365354.66007
  25188266.954 7  98844405.36607  25188264.527 8 101422926.93608
 24  1 21 14 45 47.0000000  0 24G20G13E05G11G12E15G05G17R11G22G06R10
                                E03E27E08E30R20G19R06R05E02R09R21E34
  20158655.976 7 105934591.97807  82546527.87907  20158657.593 7

  24347088.449 6 127944823.12406  99697284.49903  24347087.730 3

  24783722.819 6 130239311.98206
  24783735.161 7  97256658.50707  24783732.967 7  99793771.83507
  21725694.203 6 114169446.66506  88963302.93405  21725700.616 5  21725699.846 7

  21499902.984 8 112982802.45008  88038580.91508  21499908.726 8  21499908.749 7

  25154848.978 7 132189699.64507
  25154861.364 7  98713245.14507  25154858.802 7 101288338.96207
  21505703.276 8 113013244.32908  88062308.26309  21505708.092 9  21505708.547 7

  23421860.987 6 123082822.04006  95908770.67607  23421867.328 7  23421867.550 7

  22014149.060 7 117636933.24707  91495447.50807                  22014162.146 7

  23758556.700 6 124852211.81906  97287524.79704  23758556.114 4

  22659352.261 6 119075862.37506  92786499.00907  22659359.907 7  22659361.014 7

  21309968.631 7 113594120.06707

  25795901.059 6 135558396.07806
  25795908.881 7 101228892.02807  25795906.290 7 103869577.38807
  26176742.706 6 137559734.44506
  26176755.706 5 102723225.26405  26176752.066 5 105402943.20205
  28042090.658 5 147362216.05805
  28042095.664 6 110043265.88506  28042095.140 7 112913946.25207
  23970036.507 8 125963452.12508
  23970045.346 8  94063701.27208  23970042.723 8  96517524.48708
  21778734.363 5 116460812.28005  90580751.58707                  21778745.788 7

  21687299.505 7 113967661.41607  88806042.44106  21687303.448 6

  20619360.044 7 110028884.74707

  20790191.517 8 111135572.57208  86438821.81808                  20790202.352 8

  25527332.810 6 134147231.19106
  25527336.151 6 100175033.62306  25527334.402 7 102788267.00607
  23006570.790 7 122853907.24407  95553208.78107                  23006577.331 7

                                                                  22615182.710 4

  25188444.208 7 132366340.69207
  25188454.540 7  98845141.68807  25188452.162 8 101423682.46208
 24  1 21 14 45 48.0000000  0 24G20G13E05G11G12E15G05G17R11G22G06R10
                                E03E27E08E30R20G19R06R05E02R09R21E34
  20158726.488 8 105934962.84108  82546816.89307  20158728.200 7

  24346613.525 6 127942328.00906  99695340.27003  24346612.879 3

  24783633.245 6 130238841.41106
  24783645.600 7  97256307.12807  24783643.425 7  99793411.28207
  21725842.260 6 114170224.83306  88963909.31105  21725848.716 5  21725848.019 7

  21499699.339 7 112981732.61507  88037747.28008  21499705.138 8  21499705.249 7

  25154854.378 7 132189727.45907
  25154866.637 7  98713265.92707  25154864.094 7 101288360.28307
  21505266.593 8 113010949.42508  88060520.03109  21505271.394 9  21505271.848 7

  23422200.415 6 123084605.37206  95910160.29007  23422206.648 7  23422206.972 6

  22014048.043 7 117636394.44107  91495028.43707                  22014061.440 7

  23759213.615 6 124855664.35106  97290215.07604  23759213.152 4

  22659653.707 6 119077446.00306  92787733.00707  22659661.277 7  22659662.454 7

  21310462.319 7 113596752.35107

  25795518.924 6 135556388.40806
  25795526.852 7 101227392.79407  25795524.253 7 103868039.04307
  26176433.435 6 137558109.36906
  26176446.557 5 102722011.73705  26176443.094 5 105401698.01505
  28041679.620 5 147360056.32705
  28041684.635 6 110041653.11606  28041684.174 7 112912291.41407
  23970193.283 8 125964276.16908
  23970202.125 8  94064316.62508  23970199.534 8  96518155.89508
  21778771.064 5 116461011.08905  90580906.23507                  21778782.747 7

  21687547.442 7 113968964.08807  88807057.51106  21687551.306 6

  20618782.891 7 110025805.31607

  20790409.927 8 111136740.37308  86439730.11608                  20790420.719 8

  25527863.111 7 134150017.62607
  25527866.416 8 100177114.23308  25527864.628 8 102790401.90808
  23007279.340 7 122857691.11407  95556151.80007                  23007285.827 7

  22615004.784 3                                                  22614986.424 4

  25188631.910 7 132367326.65607
  25188642.137 7  98845877.96607  25188639.767 8 101424437.94508
 24  1 21 14 45 49.0000000  0 24G20G13E05G11G12E15G05G17R11G22G06R10
                                E03E27E08E30R20G19R06R05E02R09R21E34
  20158797.094 7 105935333.92707  82547106.07607  20158798.847 7

  24346138.468 6 127939832.51506  99693395.73703  24346138.096 3

  24783543.693 6 130238371.03006
  24783556.095 7  97255955.87207  24783553.916 7  99793050.86607
  21725990.284 6 114171002.86006  88964515.57405  21725996.767 5  21725996.098 7

  21499495.814 7 112980663.24007  88036914.00708  21499501.634 8  21499501.809 7

  25154859.660 7 132189755.12507
  25154871.948 7  98713286.59007  25154869.351 7 101288381.49007
  21504829.987 8 113008654.82308  88058732.03509  21504834.749 9  21504835.153 7

  23422539.858 6 123086388.83306  95911550.00907  23422545.995 7  23422546.396 6

  22013947.223 7 117635856.24107  91494609.83307                  22013960.897 7

  23759870.412 6 124859116.80506  97292905.29204  23759870.189 4

  22659955.040 6 119079029.37706  92788966.80707  22659962.602 7  22659963.813 7

  21310955.997 7 113599384.90207

  25795136.779 6 135554380.63306
  25795144.767 7 101225893.46307  25795142.139 7 103866500.61107
  26176124.135 6 137556484.49006
  26176137.361 5 102720798.36805  26176133.896 5 105400453.00705
  28041268.629 5 147357896.22105
  28041273.641 6 110040040.07106  28041273.088 7 112910636.28007
  23970350.150 8 125965100.48408
  23970358.972 8  94064932.17908  23970356.386 8  96518787.51108
  21778807.730 5 116461209.62405  90581060.65806                  21778819.891 6

  21687795.314 7 113970266.97307  88808072.74406  21687799.208 6

  20618205.879 7 110022726.22707

  20790628.615 8 111137908.83508  86440638.91808                  20790639.281 8

  25528393.359 7 134152803.90507
  25528396.653 7 100179194.86807  25528394.892 8 102792536.81708
  23007987.976 7 122861474.72507  95559094.59907                  23007994.324 7

                                                                  22614791.703 4

  25188819.495 7 132368312.35007
  25188829.728 7  98846614.03907  25188827.349 8 101425193.22008
 24  1 21 14 45 50.0000000  0 24G20G13E05G11G12E15G05G17R11G22G06R10
                                E03E27E08E30R20G19R06R05E02R09R21E34
  20158867.741 8 105935705.46808  82547395.61207  20158869.584 7

  24345663.633 6 127937336.69506  99691450.94303  24345663.053 3

  24783454.186 6 130237900.91106
  24783466.691 7  97255604.82607  24783464.456 7  99792690.65407
  21726138.387 6 114171780.84006  88965121.80205  21726144.809 5  21726144.170 7

  21499292.368 7 112979594.41307  88036081.15908  21499298.233 8  21499298.345 7

  25154864.839 7 132189782.71707
  25154877.183 7  98713307.19407  25154874.613 7 101288402.63207
  21504393.365 8 113006360.57308  88056944.31409  21504398.180 9  21504398.667 7

  23422879.148 6 123088172.54706  95912939.92107  23422885.391 7  23422885.791 6

  22013846.453 7 117635318.69907  91494191.74307                  22013860.290 7

  23760527.363 6 124862569.25306  97295595.50704  23760527.187 4

  22660256.473 6 119080612.58606  92790200.48007  22660263.899 7  22660265.095 7

  21311450.117 7 113602017.78807

  25794754.819 6 135552372.86206
  25794762.682 7 101224394.16207  25794760.111 7 103864962.19807
  26175814.985 6 137554859.90806
  26175828.105 5 102719585.19905  26175824.732 5 105399208.19405
  28040857.449 5 147355735.82705
  28040862.484 6 110038426.78006  28040861.952 7 112908980.92307
  23970507.094 8 125965925.14508
  23970515.906 8  94065548.00808  23970513.319 8  96519419.39708
  21778844.152 5 116461407.99005  90581214.95406                  21778857.001 6

  21688043.394 7 113971570.17007  88809088.22306  21688047.178 6

  20617628.805 7 110019647.55207

  20790847.346 8 111139078.05608  86441548.31608                  20790858.167 8

  25528923.625 6 134155590.14406
  25528926.795 6 100181275.30606  25528925.178 6 102794671.54606
  23008696.433 7 122865258.12407  95562037.24607                  23008702.752 7

                                                                  22614597.013 4

  25189007.043 7 132369297.88007
  25189017.256 7  98847349.97907  25189014.899 8 101425948.35908
 24  1 21 14 45 51.0000000  0 24G20G13E05G11G12E15G05G17R11G22G06R10
                                E03E27E08E30R20G19R06R05E02R09R21E34
  20158938.585 7 105936077.84207  82547685.76607  20158940.454 7

  24345188.656 6 127934841.07406  99689506.30303  24345188.091 3

  24783364.821 7 130237431.56207
  24783377.358 7  97255254.33207  24783375.135 7  99792331.02307
  21726286.593 6 114172559.28106  88965728.38705  21726292.927 5  21726292.259 7

  21499089.166 7 112978526.64007  88035249.13308  21499095.034 8  21499095.088 7

  25154870.170 7 132189810.72607
  25154882.555 7  98713328.12107  25154879.912 7 101288424.10407
  21503956.975 8 113004067.22608  88055157.28909  21503961.776 9  21503962.323 7

  23423218.788 6 123089957.01206  95914330.42007  23423224.935 7  23423225.250 6

  22013746.187 7 117634782.34907  91493774.58107                  22013759.658 7

  23761184.363 6 124866022.22306  97298286.13404  23761184.305 4

  22660557.783 6 119082196.13806  92791434.42007  22660565.264 7  22660566.479 7

  21311943.869 7 113604651.53007

  25794372.849 6 135550365.59206
  25794380.700 7 101222895.24907  25794378.141 7 103863424.16407
  26175505.935 6 137553236.08606
  26175519.030 5 102718372.59205  26175515.897 5 105397963.96605
  28040446.171 5 147353575.60305
  28040451.392 6 110036813.66706  28040450.978 7 112907325.70007
  23970664.190 8 125966750.66708
  23970673.014 8  94066164.46508  23970670.399 8  96520051.94108
  21778881.420 5 116461606.68505  90581369.51307                  21778894.170 7

  21688291.464 7 113972874.17507  88810104.32806  21688295.299 6

  20617052.018 7 110016569.81307

  20791066.312 8 111140248.57008  86442458.72008                  20791077.127 8

  25529454.005 6 134158377.16106
  25529457.315 6 100183356.57006  25529455.704 7 102796807.08507
  23009405.224 7 122869041.86907  95564980.17107                  23009411.239 7

                                                                  22614399.515 4

  25189194.672 7 132370283.71807
  25189204.844 7  98848086.16907  25189202.513 8 101426703.75408
 24  1 21 14 45 52.0000000  0 24G20G13E05G11G12E15G05G17R11G22G06R10
                                E03E27E08E30R20G19R06R05E02R09R21E34
  20159009.611 7 105936450.88507  82547976.41207  20159011.459 7

  24344713.897 6 127932345.38406  99687561.61703  24344713.249 3

  24783275.556 6 130236962.72406
  24783288.148 7  97254904.23507  24783285.929 7  99791971.79707
  21726434.790 6 114173337.91506  88966335.12305  21726441.076 5  21726440.367 7

  21498886.076 7 112977459.66707  88034417.72908  21498891.982 8  21498892.195 7

  25154875.529 7 132189838.92507
  25154887.885 7  98713349.18607  25154885.273 7 101288445.71507
  21503520.694 7 113001774.53207  88053370.76809  21503525.498 9  21503526.074 7

  23423558.369 6 123091741.97506  95915721.31007  23423564.573 7  23423564.984 6

  22013645.966 7 117634246.91307  91493358.11507                  22013659.334 7

  23761841.501 6 124869475.45906  97300976.97304  23761841.500 4

  22660859.216 6 119083779.77406  92792668.42507  22660866.638 7  22660867.846 7

  21312437.899 7 113607285.87707

  25793990.960 6 135548358.56906
  25793998.781 7 101221396.49507  25793996.217 7 103861886.32507
  26175197.025 6 137551612.80706
  26175210.054 5 102717160.39105  26175207.058 5 105396720.15005
  28040034.925 5 147351415.34405
  28040040.401 6 110035200.48806  28040039.910 7 112905670.43107
  23970821.406 8 125967576.79008
  23970830.259 8  94066781.37708  23970827.637 8  96520684.94308
  21778918.189 5 116461805.44205  90581524.11507                  21778931.260 7

  21688539.672 7 113974178.72107  88811120.85606  21688543.514 6

  20616475.265 7 110013492.73607

  20791285.458 8 111141420.10608  86443369.91008                  20791296.464 8

  25529984.353 6 134161164.46406
  25529987.754 6 100185437.96206  25529986.169 7 102798942.81907
  23010114.060 7 122872825.66407  95567923.12807                  23010119.888 7

                                                                  22614205.169 4

  25189382.306 7 132371269.63807
  25189392.461 7  98848822.41207  25189390.145 8 101427459.19708
 24  1 21 14 45 53.0000000  0 24G20G13E05G11G12E15G05G17R11G22G06R10
                                E03E27E08E30R20G19R06R05E02R09R21E34
  20159080.709 7 105936824.31707  82548267.35107  20159082.531 7

  24344239.196 6 127929849.18706  99685616.54203  24344238.211 3

  24783186.263 6 130236493.95706
  24783198.999 7  97254554.19807  24783196.706 7  99791612.61907
  21726582.778 6 114174116.33406  88966941.68905  21726589.199 5  21726588.471 7

  21498683.114 7 112976393.05307  88033586.60508  21498689.002 8  21498689.145 7

  25154880.814 7 132189866.85807
  25154893.206 7  98713370.04707  25154890.586 7 101288467.12407
  21503084.438 7 112999482.03107  88051584.40108  21503089.255 8  21503089.877 7

  23423897.985 6 123093526.98006  95917112.22907  23423904.224 7  23423904.750 6

  22013545.884 7 117633711.98107  91492942.05107                  22013559.176 7

  23762498.588 6 124872928.50406  97303667.65904  23762498.618 4

  22661160.626 6 119085363.06506  92793902.16007  22661167.954 7  22661169.086 7

  21312931.935 7 113609920.39007

  25793609.003 6 135546351.34106
  25793616.850 7 101219897.58707  25793614.244 7 103860348.31107
  26174888.320 6 137549989.59806
  26174901.156 5 102715948.26105  26174898.164 5 105395476.38405
  28039623.823 5 147349254.60805
  28039629.184 6 110033586.94106  28039628.669 7 112904014.80607
  23970978.723 8 125968403.09208
  23970987.507 8  94067398.41708  23970984.868 8  96521318.08108
  21778956.318 5 116462003.86305  90581678.43006                  21778968.411 6

  21688787.813 7 113975483.39107  88812137.47906  21688791.770 6

  20615898.866 7 110010415.88507

  20791504.604 8 111142592.20908  86444281.55908                  20791515.731 8

  25530514.749 7 134163951.66807
  25530518.243 7 100187519.35107  25530516.596 8 102801078.48908
  23010822.373 7 122876609.09107  95570865.80407                  23010828.408 7

                                                                  22614007.854 4

  25189569.825 7 132372255.19107
  25189580.032 7  98849558.36807  25189577.672 8 101428214.36008
 24  1 21 14 45 54.0000000  0 24G20G13E05G11G12E15G05G17R11G22G06R10
                                E03E27E08E30R20G19R06R05E02R09R21E34
  20159151.856 7 105937198.20707  82548558.67407  20159153.697 7

  24343764.120 6 127927352.71506  99683671.24303  24343763.101 3

  24783097.010 6 130236025.47306
  24783109.874 7  97254204.35807  24783107.543 7  99791253.65107
  21726730.907 6 114174894.70406  88967548.21705  21726737.317 5  21726736.627 7

  21498480.359 7 112975326.99007  88032755.91008  21498486.124 8  21498486.106 7

  25154886.087 7 132189894.72607
  25154898.439 7  98713390.86707  25154895.839 7 101288488.48007
  21502648.258 7 112997189.95907  88049798.36608  21502653.098 8  21502653.640 7

  23424237.720 6 123095312.25106  95918503.35507  23424243.928 7  23424244.560 6

  22013445.999 7 117633177.75007  91492526.53807                  22013459.217 7

  23763155.640 6 124876381.58006  97306358.37504  23763155.741 4

  22661461.833 6 119086946.19206  92795135.76907  22661469.248 7  22661470.196 7

  21313426.317 7 113612555.27107

  25793227.134 6 135544344.09806
  25793234.876 7 101218398.67707  25793232.272 7 103858810.30007
  26174579.524 6 137548366.69006
  26174592.467 5 102714736.35905  26174589.347 5 105394232.86005
  28039212.653 5 147347093.55705
  28039217.928 5 110031973.16505  28039217.364 7 112902358.94007
  23971136.041 8 125969229.74308
  23971144.828 8  94068015.72308  23971142.188 8  96521951.49008
  21778994.139 5 116462202.11005  90581832.62006                  21779005.946 6

  21689036.066 7 113976788.36807  88813154.34406  21689040.075 6

  20615322.301 7 110007339.45107

  20791724.071 8 111143765.07108  86445193.78308                  20791735.001 8

  25531045.121 7 134166738.94207
  25531048.704 7 100189600.80007  25531047.027 8 102803214.23308
  23011530.794 7 122880392.32407  95573808.32607                  23011536.859 7

                                                                  22613811.961 4

  25189757.330 7 132373240.57807
  25189767.532 7  98850294.21807  25189765.179 8 101428969.40208
 24  1 21 14 45 55.0000000  0 24G20G13E05G11G12E15G05G17R11G22G06R10
                                E03E27E08E30R20G19R06R05E02R09R21E34
  20159223.210 7 105937572.95207  82548850.68607  20159225.042 7

  24343288.930 6 127924856.24206  99681725.94703  24343288.080 3

  24783007.968 6 130235557.60206
  24783020.807 7  97253854.97407  24783018.508 7  99790895.16107
  21726879.022 6 114175673.38106  88968154.98005  21726885.488 5  21726884.741 7

  21498277.731 7 112974261.82007  88031925.91408  21498283.408 8  21498283.347 7

  25154891.548 7 132189922.85407
  25154903.899 7  98713411.87907  25154901.214 7 101288510.04907
  21502212.247 8 112994898.62308  88048012.90208  21502217.083 8  21502217.655 7

  23424577.555 6 123097098.10706  95919894.93906  23424583.745 6  23424584.332 6

  22013346.389 7 117632644.55207  91492111.82707                  22013359.316 7

  23763812.872 6 124879835.00106  97309049.36904  23763812.913 4

  22661763.202 6 119088529.50006  92796369.51907  22661770.577 7  22661771.427 7

  21313920.676 7 113615190.83907

  25792845.331 6 135542337.16406
  25792852.965 7 101216899.97707  25792850.324 7 103857272.50507
  26174270.855 6 137546744.40106
  26174283.798 5 102713524.92405  26174280.494 5 105392989.81505
  28038801.374 5 147344932.54905
  28038806.745 5 110030359.46005  28038806.106 7 112900703.11607
  23971293.501 8 125970057.09008
  23971302.285 8  94068633.55008  23971299.611 8  96522585.43708
  21779031.161 5 116462400.50305  90581986.92506                  21779042.833 6

  21689284.513 7 113978093.98507  88814171.70706  21689288.496 6

  20614745.534 7 110004263.78907

  20791943.614 8 111144939.02008  86446106.85508                  20791954.701 8

  25531575.610 6 134169526.57706
  25531579.167 7 100191682.44907  25531577.465 8 102805350.21108
  23012239.236 7 122884175.73107  95576750.97607                  23012245.323 7

                                                                  22613616.802 5

  25189944.864 7 132374226.12207
  25189955.119 7  98851030.17707  25189952.739 8 101429724.56608
 24  1 21 14 45 56.0000000  0 24G20G13E05G11G12E15G05G17R11G22G06R10
                                E03E27E08E30R20G19R06R05E02R09R21E34
  20159294.606 8 105937948.37108  82549143.23307  20159296.494 7

  24342813.875 6 127922359.78306  99679780.67503  24342813.158 3

  24782919.146 6 130235090.29606
  24782931.848 7  97253506.02207  24782929.559 7  99790537.10907
  21727027.305 6 114176452.32006  88968761.94905  21727033.700 5  21727032.907 7

  21498075.287 7 112973197.49907  88031096.57708  21498080.852 8  21498080.823 7

  25154897.008 7 132189951.23407
  25154909.312 7  98713433.07307  25154906.571 7 101288531.78707
  21501776.394 7 112992607.98107  88046227.98808  21501781.194 8  21501781.879 7

  23424917.504 6 123098884.50706  95921286.94306  23424923.660 6  23424924.101 6

  22013246.818 7 117632112.31207  91491697.85407                  22013259.813 7

  23764470.095 6 124883288.76506  97311740.61804  23764470.165 4

  22662064.553 6 119090112.96006  92797603.38807  22662071.933 7  22662072.726 7

  21314415.189 7 113617827.08007

  25792463.529 6 135540330.54606
  25792471.140 7 101215401.51207  25792468.482 7 103855734.95107
  26173962.236 6 137545122.70006
  26173975.127 5 102712313.90205  26173972.076 5 105391747.21305
  28038390.060 5 147342771.56805
  28038395.468 5 110028745.75805  28038394.850 7 112899047.29707
  23971451.068 8 125970885.11108
  23971459.869 8  94069251.87908  23971457.191 8  96523219.89308
  21779068.382 5 116462599.03205  90582141.34106                  21779079.892 6

  21689533.034 7 113979400.21507  88815189.54806  21689537.042 6

  20614169.119 7 110001188.84007

  20792163.328 8 111146114.03808  86447020.75908                  20792174.520 8

  25532106.184 7 134172314.59407
  25532109.722 7 100193764.34007  25532107.984 8 102807486.39208
  23012948.094 7 122887959.25907  95579693.73007                  23012953.653 7

                                                                  22613421.186 5

  25190132.468 7 132375211.81207
  25190142.696 7  98851766.25107  25190140.280 8 101430479.83608
 24  1 21 14 45 57.0000000  0 24G20G13E05G11G12E15G05G17R11G22G06R10
                                E03E27E08E30R20G19R06R05E02R09R21E34
  20159366.053 7 105938324.02507  82549435.95907  20159367.991 7

  24342338.831 6 127919862.95606  99677835.10003  24342337.999 3

  24782830.274 6 130234623.21206
  24782842.913 7  97253157.23207  24782840.653 7  99790179.20807
  21727175.548 6 114177231.14806  88969368.83005  21727181.890 5  21727180.990 7

  21497872.869 7 112972133.67107  88030267.62408  21497878.386 8  21497878.378 7

  25154902.374 7 132189979.46407
  25154914.681 7  98713454.16507  25154911.986 7 101288553.43907
  21501340.596 7 112990317.68807  88044443.34708  21501345.376 8  21501346.042 7

  23425257.432 6 123100671.11806  95922679.11706  23425263.624 6  23425264.162 6

  22013147.279 7 117631580.68807  91491284.37307                  22013160.556 7

  23765127.409 6 124886742.48006  97314431.82904  23765127.422 4

  22662365.949 6 119091696.18706  92798837.07307  22662373.253 7  22662373.995 7

  21314909.789 7 113620463.58707

  25792081.731 6 135538323.84206
  25792089.268 7 101213903.00407  25792086.655 7 103854197.35007
  26173653.768 6 137543501.21706
  26173666.616 5 102711103.07505  26173663.577 5 105390504.79205
  28037978.716 5 147340610.24005
  28037984.075 5 110027131.75505  28037983.522 6 112897391.21506
  23971608.690 8 125971713.42508
  23971617.479 8  94069870.41708  23971614.838 8  96523854.56908
  21779105.334 5 116462797.31405  90582295.58206                  21779117.047 6

  21689781.693 7 113980706.69307  88816207.58106  21689785.633 6

  20613593.305 7 109998114.26207

  20792383.152 8 111147289.74008  86447935.20108                  20792394.490 8

  25532636.620 6 134175102.53406
  25532640.237 7 100195846.16607  25532638.484 8 102809622.55008
  23013656.447 7 122891742.55407  95582636.29107                  23013662.125 7

                                                                  22613224.998 5

  25190320.023 7 132376197.25607
  25190330.231 7  98852502.13807  25190327.807 8 101431234.91908
 24  1 21 14 45 58.0000000  0 24G20G13E05G11G12E15G05G17R11G22G06R10
                                E03E27E08E30R20G19R06R05E02R09R21E34
  20159437.536 7 105938700.22207  82549729.08307  20159439.590 7

  24341863.596 6 127917365.73006  99675889.21503  24341862.751 3

  24782741.411 6 130234156.30506
  24782754.073 7  97252808.58007  24782751.763 7  99789821.46607
  21727323.671 6 114178009.85906  88969975.62405  21727330.048 5  21727329.090 7

  21497670.580 7 112971070.31307  88029439.03708  21497676.009 8  21497676.040 7

  25154907.709 7 132190007.55107
  25154920.055 7  98713475.15007  25154917.351 7 101288574.96607
  21500904.860 8 112988027.69508  88042658.94008  21500909.612 8  21500910.118 7

  23425597.334 6 123102457.88206  95924071.40406  23425603.624 6  23425604.135 6

  22013047.991 7 117631049.69607  91490871.38207                  22013061.330 7

  23765784.713 6 124890196.12906  97317122.98604  23765784.670 4

  22662667.121 6 119093279.18606  92800070.58207  22662674.520 7  22662675.224 7

  21315404.500 7 113623100.36207

  25791699.825 6 135536317.08206
  25791707.406 7 101212404.43507  25791704.782 7 103852659.69207
  26173345.130 6 137541879.93206
  26173357.985 5 102709892.37305  26173355.076 5 105389262.49905
  28037567.136 5 147338448.50905
  28037572.707 5 110025517.51805  28037572.187 6 112895734.84006
  23971766.348 8 125972542.01508
  23971775.181 8  94070489.17408  23971772.519 8  96524489.46808
  21779141.941 5 116462995.38005  90582449.63106                  21779153.685 6

  21690030.315 7 113982013.40107  88817225.79106  21690034.268 6

  20613017.258 7 109995040.01307

  20792603.152 8 111148466.12908  86448850.16308                  20792614.449 8

  25533167.217 6 134177890.42506
  25533170.794 7 100197928.02307  25533169.023 8 102811758.71708
  23014364.555 7 122895525.56107  95585578.64907                  23014370.672 7

                                                                  22613028.430 5

  25190507.507 7 132377182.45807
  25190517.653 7  98853237.83807  25190515.269 8 101431989.81108
 24  1 21 14 45 59.0000000  0 24G20G13E05G11G12E15G05G17R11G22G06R10
                                E03E27E08E30R20G19R06R05E02R09R21E34
  20159509.226 7 105939077.00807  82550022.68407  20159511.315 7

  24341388.395 6 127914868.31906  99673943.18603  24341387.533 3

  24782652.628 6 130233689.78606
  24782665.300 7  97252460.20107  24782662.982 7  99789463.99707
  21727471.872 7 114178788.64207  88970582.47005  21727478.229 5  21727477.289 7

  21497468.333 7 112970007.61707  88028610.96708  21497473.758 8  21497473.697 7

  25154913.052 7 132190035.68207
  25154925.385 7  98713496.15107  25154922.690 7 101288596.51707
  21500469.241 8 112985738.19208  88040874.91409  21500473.946 9  21500474.422 7

  23425937.317 6 123104245.00006  95925463.97106  23425943.686 6  23425944.222 6

  22012948.544 7 117630519.47507  91490458.99007                  22012962.302 7

  23766441.937 6 124893649.89906  97319814.23104  23766441.968 4

  22662968.368 6 119094862.12206  92801304.04207  22662975.782 7  22662976.495 7

  21315899.166 7 113625737.58007

  25791318.000 6 135534310.42506
  25791325.582 7 101210905.94507  25791322.945 7 103851122.11407
  26173036.711 6 137540259.04206
  26173049.580 5 102708681.98605  26173046.754 5 105388020.52505
  28037155.798 5 147336286.59105
  28037161.316 5 110023903.09105  28037160.887 6 112894078.32606
  23971924.060 8 125973371.06908
  23971932.945 8  94071108.27108  23971930.278 8  96525124.71608
  21779178.620 5 116463193.35905  90582603.61506                  21779190.666 6

  21690279.138 7 113983320.51107  88818244.31606  21690282.980 6

  20612441.381 7 109991966.31107

  20792823.512 8 111149643.39108  86449765.81008                  20792834.590 8

  25533697.760 6 134180678.49806
  25533701.394 7 100200009.97207  25533699.600 8 102813894.96808
  23015072.928 7 122899308.51307  95588520.94307                  23015079.060 7

                                                                  22612832.184 5

  25190694.951 7 132378167.58107
  25190705.129 7  98853973.48107  25190702.719 8 101432744.65408
 24  1 21 14 46  0.0000000  0 24G20G13E05G11G12E15G05G17R11G22G06R10
                                E03E27E08E30R20G19R06R05E02R09R21E34
  20159580.945 8 105939454.11708  82550316.56107  20159583.098 7

  24340912.785 6 127912370.41406  99671996.77103  24340912.160 3

  24782563.924 6 130233223.33906
  24782576.538 7  97252111.88507  24782574.221 7  99789106.59507
  21727620.078 6 114179567.20506  88971189.14805  21727626.360 5  21727625.476 7

  21497266.245 7 112968945.29207  88027783.18808  21497271.573 8  21497271.481 7

  25154918.391 7 132190063.56307
  25154930.693 7  98713516.98607  25154927.939 7 101288617.88607
  21500033.588 8 112983448.91308  88039091.06409  21500038.316 9  21500038.749 7

  23426277.254 6 123106032.21206  95926856.61006  23426283.775 6  23426284.357 7

  22012849.395 7 117629989.77707  91490046.99807                  22012863.270 7

  23767099.220 6 124897103.49706  97322505.33804  23767099.221 4

  22663269.427 6 119096444.72906  92802537.24607  22663276.977 7  22663277.686 7

  21316394.020 7 113628374.96207

  25790936.181 6 135532303.59506
  25790943.738 7 101209407.35507  25790941.089 7 103849584.41907
  26172728.339 6 137538638.27406
  26172741.277 5 102707471.66205  26172738.335 5 105386778.62505
  28036744.154 5 147334124.20905
  28036749.724 5 110022288.35305  28036749.476 6 112892421.44906
  23972081.846 8 125974200.30808
  23972090.743 8  94071727.50808  23972088.076 8  96525760.10408
  21779215.162 5 116463390.98705  90582757.32206                  21779227.622 6

  21690527.899 7 113984627.77307  88819262.95906  21690531.727 6

  20611865.541 7 109988892.83507

  20793043.843 8 111150821.23508  86450681.91208                  20793054.963 8

  25534228.410 6 134183466.46806
  25534231.935 7 100202091.81307  25534230.191 8 102816031.12708
  23015781.208 7 122903091.10107  95591462.95607                  23015787.510 7

                                                                  22612634.838 5

  25190882.312 7 132379152.35607
  25190892.503 7  98854708.87607  25190890.142 8 101433499.22408
 24  1 21 14 46  1.0000000  0 24G20G13E05G11G12E15G05G17R11G22G06R10
                                E03E27E08E30R20G19R06R05E02R09R21E34
  20159652.705 8 105939831.69308  82550610.81807  20159654.953 7

  24340437.432 6 127909872.40106  99670050.27803  24340436.692 3

  24782475.383 6 130232757.39706
  24782487.930 7  97251763.92807  24782485.524 7  99788749.57207
  21727768.184 6 114180345.93706  88971795.95105  21727774.510 5  21727773.681 7

  21497064.218 7 112967883.73107  88026956.00108  21497069.536 8  21497069.511 7

  25154923.763 7 132190091.58707
  25154936.037 7  98713537.91607  25154933.242 7 101288639.36507
  21499598.079 8 112981160.24408  88037307.68609  21499602.798 9  21499603.050 7

  23426617.331 6 123107819.85506  95928249.58406  23426623.954 6  23426624.509 7

  22012750.219 7 117629460.98507  91489635.71307                  22012764.389 7

  23767756.434 6 124900557.31506  97325196.62904  23767756.486 4

  22663570.788 6 119098027.37306  92803770.47907  22663578.177 7  22663578.871 7

  21316888.760 7 113631012.89707

  25790554.434 6 135530296.96906
  25790561.935 7 101207908.89807  25790559.220 7 103848046.88607
  26172419.912 6 137537017.96606
  26172432.836 5 102706261.69805  26172430.009 5 105385537.11005
  28036332.789 5 147331961.75005
  28036338.265 5 110020673.55305  28036337.973 6 112890764.50406
  23972239.710 8 125975030.11608
  23972248.632 8  94072347.16208  23972245.977 8  96526395.92808
  21779251.657 5 116463588.64505  90582911.07806                  21779264.770 6

  21690776.875 7 113985935.51807  88820281.98106  21690780.578 6

  20611289.568 7 109985819.99507

  20793264.388 8 111152000.05408  86451598.77008                  20793275.421 8

  25534759.001 6 134186254.72206
  25534762.590 6 100204173.98506  25534760.817 7 102818167.63907
  23016489.401 7 122906873.69707  95594405.00207                  23016495.795 7

  22612456.187 3                                                  22612438.104 5

  25191069.671 7 132380137.18207
  25191079.899 7  98855444.29207  25191077.529 8 101434253.82608
 24  1 21 14 46  2.0000000  0 24G20G13E05G11G12E15G05G17R11G22G06R10
                                E03E27E08E30R20G19R06R05E02R09R21E34
  20159724.693 7 105940209.66107  82550905.34407  20159726.861 7

  24339961.948 6 127907374.19606  99668103.63303  24339961.287 3

  24782386.816 6 130232291.83906
  24782399.343 7  97251416.29307  24782396.930 7  99788392.85607
  21727916.392 6 114181124.73806  88972402.81005  21727922.677 5  21727921.844 7

  21496862.372 8 112966822.82608  88026129.32508  21496867.616 8  21496867.710 7

  25154929.051 7 132190119.64307
  25154941.330 7  98713558.87807  25154938.574 7 101288660.86707
  21499162.654 8 112978872.08508  88035524.70309  21499167.378 9  21499167.657 7

  23426957.635 6 123109607.88506  95929642.85706  23426964.209 6  23426964.937 7

  22012650.967 7 117628932.97107  91489225.04407                  22012665.745 7

  23768413.510 6 124904011.26906  97327888.02304  23768413.824 4

  22663871.695 6 119099609.98306  92805003.68407  22663879.372 7  22663879.881 7

  21317383.516 7 113633651.29207

  25790172.607 6 135528290.45706
  25790180.115 7 101206410.53207  25790177.372 7 103846509.41907
  26172111.785 6 137535398.07606
  26172124.441 5 102705052.04805  26172121.783 5 105384295.89105
  28035921.281 5 147329799.10205
  28035926.606 5 110019058.55905  28035926.411 6 112889107.39406
  23972397.720 8 125975860.38608
  23972406.636 8  94072967.17308  23972403.977 8  96527032.10908
  21779288.974 5 116463786.26705  90583064.78006                  21779301.976 6

  21691025.794 7 113987243.70307  88821301.34606  21691029.495 6

  20610713.630 7 109982747.67207

  20793485.139 8 111153179.71708  86452516.28908                  20793496.109 8

  25535289.749 6 134189043.26906
  25535293.326 7 100206256.31407  25535291.464 8 102820304.26508
  23017197.829 7 122910656.25007  95597346.99207                  23017204.227 7

  22612260.040 4                                                  22612240.499 5

  25191256.922 7 132381121.93807
  25191267.296 7  98856179.66607  25191264.965 8 101435008.38208
 24  1 21 14 46  3.0000000  0 24G20G13E05G11G12E15G05G17R11G22G06R10
                                E03E27E08E30R20G19R06R05E02R09R21E34
  20159796.859 7 105940588.33207  82551200.36307  20159798.921 7

  24339486.394 6 127904875.92706  99666156.93903  24339485.824 3

  24782298.322 6 130231826.79606
  24782310.858 7  97251069.02707  24782308.435 7  99788036.53507
  21728064.510 6 114181903.74106  88973009.82905  21728070.893 5  21728070.069 7

  21496660.664 8 112965762.72408  88025303.27608  21496665.847 8  21496665.823 7

  25154934.474 7 132190147.86907
  25154946.667 7  98713579.96007  25154943.980 7 101288682.50907
  21498727.349 8 112976584.55808  88033742.21308  21498732.075 8  21498732.380 7

  23427298.045 6 123111396.39106  95931036.50406  23427304.553 6  23427305.205 7

  22012552.101 7 117628405.88907  91488815.10207                  22012567.045 7

  23769070.808 6 124907465.46706  97330579.60904  23769071.183 4

  22664172.763 6 119101192.68406  92806236.95907  22664180.585 7  22664181.007 7

  21317878.898 7 113636290.27607

  25789790.816 6 135526284.17506
  25789798.337 7 101204912.33007  25789795.580 7 103844972.14507
  26171803.547 6 137533778.70106
  26171816.302 5 102703842.77305  26171813.704 5 105383055.07505
  28035509.757 5 147327636.39705
  28035515.029 5 110017443.54605  28035514.813 6 112887450.27106
  23972555.821 8 125976691.26008
  23972564.734 8  94073587.62808  23972562.086 8  96527668.75508
  21779325.509 5 116463984.00805  90583218.55006                  21779338.921 6

  21691274.706 7 113988552.43307  88822321.13306  21691278.524 6

  20610138.221 7 109979676.00807

  20793706.183 8 111154360.36408  86453434.57208                  20793716.963 8

  25535820.395 6 134191832.05406
  25535824.045 7 100208338.87307  25535822.180 8 102822441.16208
  23017906.081 7 122914438.85507  95600289.03607                  23017912.767 7

  22612062.667 4                                                  22612043.332 5

  25191444.257 7 132382106.75807
  25191454.708 7  98856915.08707  25191452.337 8 101435762.99008
 24  1 21 14 46  4.0000000  0 24G20G13E05G11G12E15G05G17R11G22G06R10
                                E03E27E08E30R20G19R06R05E02R09R21E34
  20159869.132 7 105940967.60507  82551495.84607  20159871.097 7

  24339010.766 6 127902377.31306  99664209.98103  24339010.383 3

  24782209.873 6 130231361.97006
  24782222.342 7  97250721.92607  24782219.970 7  99787680.37107
  21728212.751 6 114182682.67506  88973616.79505  21728219.096 5  21728218.391 7

  21496459.014 8 112964703.12808  88024477.62008  21496464.177 8  21496464.191 7

  25154939.761 7 132190176.00607
  25154952.051 7  98713600.98407  25154949.334 7 101288704.06307
  21498292.096 8 112974297.36808  88031959.98808  21498296.834 8  21498297.215 7

  23427638.425 6 123113185.10806  95932430.31406  23427644.933 6  23427645.428 7

  22012453.580 7 117627879.46507  91488405.65107                  22012468.529 7

  23769728.061 6 124910919.66006  97333271.19104  23769728.503 4

  22664473.905 6 119102775.19106  92807470.08607  22664481.757 7  22664482.130 7

  21318373.673 7 113638929.56907

  25789409.003 6 135524277.84506
  25789416.533 7 101203414.09907  25789413.775 7 103843434.82207
  26171495.373 6 137532159.55806
  26171508.275 5 102702633.66205  26171505.675 5 105381814.43305
  28035098.184 5 147325473.35605
  28035103.478 5 110015828.31605  28035103.249 6 112885792.89206
  23972713.960 8 125977522.45708
  23972722.908 8  94074208.32608  23972720.260 8  96528305.64308
  21779363.127 5 116464181.49405  90583372.16406                  21779375.636 6

  21691523.879 7 113989861.43807  88823341.13806  21691527.598 6

  20609562.513 7 109976604.72807

  20793927.208 8 111155541.71608  86454353.40708                  20793937.910 8

  25536350.982 6 134194620.84706
  25536354.759 7 100210421.36507  25536352.853 8 102824577.99208
  23018614.214 7 122918221.23007  95603230.88607                  23018621.106 7

  22611867.798 4                                                  22611846.777 5

  25191631.592 7 132383091.37107
  25191642.072 7  98857650.35407  25191639.697 8 101436517.43308
 24  1 21 14 46  5.0000000  0 24G20G13E05G11G12E15G05G17R11G22G06R10
                                E03E27E08E30R20G19R06R05E02R09R21E34
  20159941.488 7 105941347.44207  82551791.81107  20159943.395 7

  24338535.155 6 127899878.38906  99662262.77003  24338534.839 3

  24782121.448 6 130230897.42906
  24782133.941 7  97250375.03207  24782131.537 7  99787324.43007
  21728360.894 6 114183461.56106  88974223.72105  21728367.272 5  21728366.672 7

  21496257.439 8 112963644.09508  88023652.40208  21496262.605 8  21496262.655 7

  25154945.025 7 132190204.06407
  25154957.393 7  98713621.93707  25154954.669 7 101288725.56607
  21497856.905 8 112972010.59608  88030178.08708  21497861.674 8  21497862.165 7

  23427978.816 6 123114974.06806  95933824.31606  23427985.366 6  23427985.875 6

  22012355.375 7 117627353.74707  91487996.74707                  22012369.950 7

  23770385.195 6 124914373.86706  97335962.78104  23770385.836 4

  22664774.882 6 119104357.51506  92808703.06907  22664782.899 7  22664783.257 7

  21318869.035 7 113641569.21907

  25789027.141 6 135522271.51406
  25789034.722 7 101201915.86507  25789031.973 7 103841897.49707
  26171187.281 6 137530540.70506
  26171200.299 5 102701424.78605  26171197.710 5 105380574.02805
  28034686.324 5 147323310.01505
  28034691.895 5 110014212.86105  28034691.621 6 112884135.28006
  23972872.173 8 125978354.00808
  23972881.137 8  94074829.28708  23972878.509 8  96528942.80208
  21779399.821 5 116464378.83705  90583525.63506                  21779412.708 6

  21691773.198 7 113991170.75207  88824361.38206  21691776.734 6

  20608987.316 7 109973533.86507

  20794148.371 8 111156723.85308  86455272.84508                  20794159.056 8

  25536881.707 6 134197409.65406
  25536885.432 7 100212503.89307  25536883.547 8 102826714.85008
  23019322.552 7 122922003.41707  95606172.59307                  23019329.383 7

  22611670.917 4                                                  22611650.151 5

  25191818.927 7 132384075.80807
  25191829.385 7  98858385.49307  25191827.015 8 101437271.75208
 24  1 21 14 46  6.0000000  0 24G20G13E05G11G12E15G05G17R11G22G06R10
                                E03E27E08E30R20G19R06R05E02R09R21E34
  20160013.887 7 105941727.78407  82552088.19907  20160015.795 7

  24338059.686 6 127897379.34106  99660315.47003  24338059.220 3

  24782033.147 6 130230433.33306
  24782045.657 7  97250028.47007  24782043.203 7  99786968.81907
  21728509.104 6 114184240.58606  88974830.75905  21728515.475 5  21728514.885 7

  21496056.018 8 112962585.78708  88022827.75208  21496061.181 8  21496061.283 7

  25154950.365 7 132190232.23407
  25154962.737 7  98713642.98407  25154960.020 7 101288747.16207
  21497421.872 8 112969724.40508  88028396.63509  21497426.621 9  21497427.118 7

  23428319.274 6 123116763.46506  95935218.65807  23428325.885 7  23428326.474 6

  22012257.317 7 117626828.87907  91487588.51707                  22012271.492 7

  23771042.559 6 124917828.27106  97338654.52404  23771043.249 4

  22665076.055 6 119105939.86406  92809936.07307  22665084.040 7  22665084.327 7

  21319364.646 7 113644209.40807

  25788645.307 6 135520265.35606
  25788652.923 7 101200417.74007  25788650.198 7 103840360.29707
  26170879.480 6 137528922.33406
  26170892.341 5 102700216.26305  26170889.662 5 105379333.98005
  28034274.860 5 147321146.57905
  28034280.105 5 110012597.30805  28034279.994 7 112882477.58307
  23973030.511 8 125979186.09808
  23973039.510 8  94075450.65108  23973036.844 8  96529580.37908
  21779436.441 5 116464576.15705  90583679.13406                  21779449.282 6

  21692022.423 7 113992480.54907  88825382.00206  21692025.965 6

  20608412.137 7 109970463.61707

  20794369.722 8 111157906.94408  86456193.03508                  20794380.283 8

  25537412.402 6 134200198.72106
  25537416.191 7 100214586.60207  25537414.302 7 102828851.87607
  23020030.887 7 122925785.58207  95609114.28607                  23020037.818 7

  22611473.852 4                                                  22611453.762 5

  25192006.199 7 132385060.26207
  25192016.711 7  98859120.63307  25192014.361 8 101438026.06408
 24  1 21 14 46  7.0000000  0 24G20G13E05G11G12E15G05G17R11G22G06R10
                                E03E27E08E30R20G19R06R05E02R09R21E34
  20160086.350 7 105942108.36307  82552384.77607  20160088.213 7

  24337584.111 6 127894879.87706  99658367.85503  24337583.511 3

  24781944.912 6 130229969.41906
  24781957.379 7  97249682.04507  24781954.904 7  99786613.36407
  21728657.358 6 114185019.48606  88975437.69905  21728663.651 5  21728662.986 7

  21495854.689 8 112961527.95908  88022003.47408  21495859.842 8  21495860.018 7

  25154955.685 7 132190260.24507
  25154968.065 7  98713663.90407  25154965.291 7 101288768.62807
  21496986.866 8 112967438.52308  88026615.42808  21496991.626 8  21496992.085 7

  23428659.894 6 123118553.03206  95936613.13406  23428666.430 6  23428666.851 6

  22012159.487 7 117626304.60607  91487180.74807                  22012173.411 7

  23771699.900 6 124921282.59006  97341346.19304  23771700.636 4

  22665377.202 6 119107521.98206  92811168.89607  22665385.133 7  22665385.187 7

  21319859.967 7 113646849.86907

  25788263.421 6 135518259.08406
  25788271.158 7 101198919.55107  25788268.430 7 103838823.02807
  26170571.596 6 137527304.14206
  26170584.428 5 102699007.88805  26170581.755 5 105378094.07705
  28033863.186 5 147318982.72705
  28033868.471 5 110010981.45405  28033868.214 7 112880819.59407
  23973188.901 8 125980018.46708
  23973197.884 8  94076072.22708  23973195.225 8  96530218.16408
  21779474.028 5 116464773.26205  90583832.43406                  21779486.130 6

  21692271.815 7 113993790.55507  88826402.78506  21692275.235 6

  20607836.451 7 109967393.72107

  20794591.024 8 111159090.73308  86457113.75408                  20794601.721 8

  25537943.133 5 134202987.83505
  25537946.998 5 100216669.71505  25537945.196 6 102830989.37806
  23020739.186 7 122929567.49407  95612055.76707                  23020745.810 7

  22611276.055 4                                                  22611258.240 5

  25192193.440 7 132386044.45107
  25192203.960 7  98859855.58107  25192201.669 8 101438780.19008
 24  1 21 14 46  8.0000000  0 24G20G13E05G11G12E15G05G17R11G22G06R10
                                E03E27E08E30R20G19R06R05E02R09R21E34
  20160158.854 7 105942489.60707  82552681.85807  20160160.760 7

  24337108.441 6 127892380.24906  99656420.09903  24337107.945 3

  24781856.753 6 130229505.92706
  24781869.159 7  97249335.94007  24781866.641 7  99786258.23207
  21728805.628 6 114185798.48006  88976044.71105  21728811.850 5  21728811.396 7

  21495653.435 8 112960470.79308  88021179.71308  21495658.628 8  21495658.917 7

  25154960.982 7 132190288.31407
  25154973.446 7  98713684.87207  25154970.608 7 101288790.14707
  21496551.939 8 112965153.17808  88024834.64008  21496556.725 8  21496557.198 7

  23429000.456 6 123120342.96506  95938007.89106  23429007.043 6  23429007.272 6

  22012061.533 7 117625781.13507  91486773.60507                  22012075.250 7

  23772357.069 6 124924737.06306  97344037.99304  23772358.032 4

  22665678.271 6 119109104.07206  92812401.69507  22665686.220 7  22665686.242 7

  21320355.361 7 113649490.81107

  25787881.685 6 135516252.95606
  25787889.404 7 101197421.46307  25787886.678 7 103837285.86207
  26170263.691 6 137525686.38206
  26170276.658 5 102697799.79805  26170273.923 5 105376854.47905
  28033451.332 5 147316818.72805
  28033456.741 5 110009365.49705  28033456.356 7 112879161.47107
  23973347.398 8 125980851.31508
  23973356.401 8  94076694.16008  23973353.700 8  96530856.32108
  21779511.160 5 116464970.30705  90583985.70306                  21779523.108 6

  21692521.195 7 113995101.01407  88827423.92106  21692524.595 6

  20607261.369 7 109964324.38107

  20794812.504 8 111160275.41408  86458035.17908                  20794823.390 8

  25538474.038 6 134205777.24706
  25538477.688 7 100218752.49707  25538475.854 7 102833126.44507
  23021447.314 7 122933349.35407  95614997.23907                  23021454.020 7

  22611081.664 4                                                  22611062.374 5

  25192380.698 7 132387028.59107
  25192391.237 7  98860590.49607  25192388.942 8 101439534.27908
 24  1 21 14 46  9.0000000  0 24G20G13E05G11G12E15G05G17R11G22G06R10
                                E03E27E08E30R20G19R06R05E02R09R21E34
  20160231.445 7 105942871.43007  82552979.37507  20160233.424 7

  24336632.704 6 127889880.43606  99654472.20003  24336632.271 3

  24781768.647 7 130229042.80507
  24781780.944 7  97248990.10607  24781778.493 7  99785903.37907
  21728953.994 6 114186577.55306  88976651.78305  21728960.057 5  21728959.610 7

  21495452.342 8 112959414.31008  88020356.48408  21495457.539 8  21495457.911 7

  25154966.309 7 132190316.43307
  25154978.783 7  98713705.87507  25154975.920 7 101288811.69207
  21496117.135 8 112962868.34008  88023054.24408  21496121.926 8  21496122.276 7

  23429341.047 6 123122133.27006  95939402.93706  23429347.718 6  23429347.788 6

  22011964.020 7 117625258.48807  91486367.08407                  22011977.147 7

  23773014.416 6 124928191.66206  97346729.89404  23773015.441 4

  22665979.322 6 119110686.11406  92813634.45807  22665987.290 7  22665987.354 7

  21320850.759 7 113652132.25607

  25787500.041 6 135514246.91706
  25787507.663 7 101195923.42907  25787504.940 7 103835748.75007
  26169955.939 6 137524069.00506
  26169968.921 5 102696592.04505  26169966.230 5 105375615.21805
  28033039.571 5 147314654.56105
  28033044.914 5 110007749.38705  28033044.492 6 112877503.21006
  23973506.032 8 125981684.63708
  23973514.985 8  94077316.44308  23973512.283 8  96531494.84208
  21779549.040 5 116465167.32005  90584138.92006                  21779560.404 6

  21692770.793 7 113996411.89207  88828445.38006  21692774.040 6

  20606686.008 7 109961255.57007

  20795034.216 8 111161460.94608  86458957.26208                  20795045.183 8

  25539004.896 7 134208566.74307
  25539008.512 7 100220835.62007  25539006.652 8 102835263.90808
  23022155.410 7 122937131.16407  95617938.64907                  23022162.300 7

  22610884.211 4                                                  22610867.264 5

  25192567.899 7 132388012.69007
  25192578.502 7  98861325.37307  25192576.239 8 101440288.31908
 24  1 21 14 46 10.0000000  0 24G20G13E05G11G12E15G05G17R11G22G06R10
                                E03E27E08E30R20G19R06R05E02R09R21E34
  20160304.170 7 105943253.72807  82553277.27407  20160306.182 7

  24336157.069 6 127887380.42206  99652524.14503  24336156.482 3

  24781680.555 7 130228580.05807
  24781692.879 7  97248644.55407  24781690.448 7  99785548.81107
  21729102.151 6 114187356.68006  88977258.89605  21729108.278 5  21729107.884 7

  21495251.405 7 112958358.47707  88019533.76008  21495256.575 8  21495257.077 7

  25154971.703 7 132190344.58107
  25154984.147 7  98713726.90307  25154981.308 7 101288833.26707
  21495682.432 8 112960584.00408  88021274.24308  21495687.217 8  21495687.537 7

  23429681.705 6 123123923.94206  95940798.27106  23429688.473 6  23429688.578 6

  22011866.517 7 117624736.63207  91485961.20007                  22011879.387 7

  23773671.832 6 124931646.38406  97349421.88604  23773672.885 4

  22666280.288 6 119112268.09306  92814867.17107  22666288.351 7  22666288.263 7

  21321346.243 7 113654774.15207

  25787118.431 6 135512241.01206
  25787125.938 7 101194425.49007  25787123.211 7 103834211.74407
  26169648.156 6 137522452.01706
  26169661.209 5 102695384.54805  26169658.669 5 105374376.20705
  28032627.735 5 147312490.20105
  28032632.920 5 110006133.14905  28032632.612 7 112875844.79507
  23973664.725 8 125982518.42908
  23973673.646 8  94077939.07608  23973670.951 8  96532133.71808
  21779586.106 5 116465364.23705  90584292.09606                  21779597.519 6

  21693020.276 7 113997723.16707  88829467.15106  21693023.561 6

  20606110.713 7 109958187.28207

  20795256.076 8 111162647.31508  86459879.99508                  20795267.201 8

  25539535.686 6 134211356.34306
  25539539.320 7 100222918.75707  25539537.392 8 102837401.37508
  23022863.333 7 122940912.88507  95620879.97907                  23022870.346 7

  22610688.041 4                                                  22610671.420 5

  25192755.266 7 132388996.70407
  25192765.772 7  98862060.19707  25192763.449 8 101441042.31708
 24  1 21 14 46 11.0000000  0 24G20G13E05G11G12E15G05G17R11G22G06R10
                                E03E27E08E30R20G19R06R05E02R09R21E34
  20160377.005 7 105943636.48007  82553575.50807  20160379.016 7

  24335681.411 6 127884880.14706  99650575.87603  24335680.741 3

  24781592.534 6 130228117.66006
  24781604.863 7  97248299.27007  24781602.460 7  99785194.51207
  21729250.450 6 114188135.83806  88977866.03105  21729256.508 5  21729256.208 7

  21495050.598 7 112957303.26007  88018711.51608  21495055.728 8  21495056.319 7

  25154977.075 7 132190372.73007
  25154989.524 7  98713747.93007  25154986.618 7 101288854.84507
  21495247.840 8 112958300.14408  88019494.61708  21495252.607 8  21495252.946 7

  23430022.476 6 123125714.90706  95942193.83506  23430029.273 6  23430029.233 6

  22011768.947 7 117624215.53907  91485555.90107                  22011782.091 7

  23774329.351 6 124935101.17406  97352113.93504  23774330.362 4

  22666581.276 6 119113849.98406  92816099.81607  22666589.390 7  22666589.271 7

  21321841.942 7 113657416.46207

  25786736.740 6 135510235.14706
  25786744.281 7 101192927.62107  25786741.557 7 103832674.80207
  26169340.602 6 137520835.38306
  26169353.724 5 102694177.33305  26169351.126 5 105373137.51405
  28032215.936 5 147310325.60205
  28032221.135 5 110004516.73305  28032220.763 6 112874186.22206
  23973823.500 8 125983352.64408
  23973832.369 8  94078562.03308  23973829.689 8  96532772.92508
  21779623.935 5 116465561.11205  90584445.21006                  21779634.175 6

  21693270.007 7 113999034.82207  88830489.21906  21693273.167 6

  20605535.539 7 109955119.44507

  20795478.111 8 111163834.49608  86460803.35708                  20795489.253 8

  25540066.530 7 134214145.98907
  25540070.087 7 100225001.83707  25540068.169 8 102839538.83208
  23023571.269 7 122944694.48607  95623821.24307                  23023578.481 7

  22610491.634 4                                                  22610475.089 5

  25192942.477 7 132389980.61407
  25192953.015 7  98862794.94107  25192950.692 8 101441796.22808
 24  1 21 14 46 12.0000000  0 24G20G13E05G11G12E15G05G17R11G22G06R10
                                E03E27E08E30R20G19R06R05E02R09R21E34
  20160449.850 6 105944019.65406  82553874.06207  20160451.939 7

  24335205.503 6 127882379.49206  99648627.32403  24335204.988 3

  24781504.481 6 130227655.44006
  24781516.887 7  97247954.11607  24781514.501 7  99784840.34707
  21729398.685 6 114188914.86806  88978473.06805  21729404.702 5  21729404.455 7

  21494849.889 7 112956248.51707  88017889.64208  21494854.974 8  21494855.688 7

  25154982.511 7 132190400.72607
  25154994.795 7  98713768.83707  25154991.976 7 101288876.29307
  21494813.272 8 112956016.59908  88017715.23608  21494818.050 8  21494818.352 7

  23430363.376 6 123127506.05006  95943589.53606  23430370.096 6  23430370.067 6

  22011671.574 7 117623695.03107  91485151.05307                  22011684.681 7

  23774986.813 6 124938555.91906  97354805.95204  23774987.788 4

  22666882.334 6 119115431.62106  92817332.26407  22666890.370 7  22666890.164 7

  21322337.686 7 113660059.04907

  25786355.048 6 135508229.22306
  25786362.578 7 101191429.68407  25786359.820 7 103831137.77407
  26169033.134 6 137519218.96206
  26169046.087 5 102692970.23805  26169043.537 5 105371898.92505
  28031803.899 5 147308160.62805
  28031809.181 5 110002900.06405  28031808.793 7 112872527.33807
  23973982.340 8 125984187.13508
  23973991.170 8  94079185.18608  23973988.499 8  96533412.33308
  21779660.600 5 116465757.71105  90584598.09406                  21779670.798 6

  21693519.626 7 114000346.70807  88831511.46706  21693522.805 6

  20604960.537 7 109952051.97807

  20795700.378 8 111165022.33708  86461727.23408                  20795711.522 8

  25540597.427 6 134216935.77906
  25540601.021 7 100227085.18207  25540599.001 8 102841676.50208
  23024279.399 7 122948475.84207  95626762.28707                  23024286.588 7

  22610294.372 4                                                  22610277.953 5

  25193129.709 7 132390964.27707
  25193140.184 7  98863529.48907  25193137.878 8 101442549.93608
 24  1 21 14 46 13.0000000  0 24G20G13E05G11G12E15G05G17R11G22G06R10
                                E03E27E08E30R20G19R06R05E02R09R21E34
  20160522.903 7 105944403.52007  82554173.16707  20160524.992 7

  24334729.452 6 127879878.62306  99646678.60503  24334729.077 3

  24781416.523 7 130227193.58507
  24781428.987 7  97247609.22707  24781426.572 7  99784486.46607
  21729546.993 6 114189693.94606  88979080.14305  21729552.910 5  21729552.651 7

  21494649.315 7 112955194.40007  88017068.25608  21494654.333 8  21494655.120 7

  25154987.847 7 132190428.74107
  25155000.159 7  98713789.76607  25154997.282 7 101288897.77107
  21494378.775 8 112953733.53208  88015936.23208  21494383.587 8  21494383.935 7

  23430704.295 6 123129297.52106  95944985.49507  23430710.986 7  23430710.955 6

  22011574.420 7 117623175.30007  91484746.80607                  22011587.312 7

  23775644.230 6 124942010.75806  97357498.04204  23775645.238 4

  22667183.127 6 119117013.20706  92818564.67307  22667191.342 7  22667191.262 7

  21322833.281 7 113662702.07407

  25785973.279 7 135506223.38607
  25785980.891 7 101189931.81607  25785978.125 7 103829600.83907
  26168725.617 6 137517602.88906
  26168738.447 5 102691763.43605  26168736.132 5 105370660.63405
  28031391.899 5 147305995.43305
  28031397.148 5 110001283.18405  28031396.770 6 112870868.31206
  23974141.245 8 125985022.06408
  23974150.058 8  94079808.67408  23974147.400 8  96534052.08508
  21779696.928 5 116465954.22805  90584750.94706                  21779707.631 6

  21693769.356 7 114001658.96307  88832534.00206  21693772.500 6

  20604385.820 7 109948985.02107

  20795922.617 8 111166211.02008  86462651.77508                  20795933.800 8

  25541128.354 6 134219725.56306
  25541131.930 7 100229168.54407  25541129.857 7 102843814.19007
  23024987.513 7 122952257.05707  95629703.25307                  23024994.569 7

  22610094.308 4                                                  22610081.479 5

  25193316.865 7 132391947.84907
  25193327.349 7  98864263.97907  25193325.030 8 101443303.58808
 24  1 21 14 46 14.0000000  0 24G20G13E05G11G12E15G05G17R11G22G06R10
                                E03E27E08E30R20G19R06R05E02R09R21E34
  20160596.012 7 105944787.94507  82554472.73407  20160598.139 7

  24334253.342 6 127877377.50806  99644729.70103  24334253.189 3

  24781328.724 6 130226732.07806
  24781341.183 7  97247264.60307  24781338.754 7  99784132.85507
  21729695.406 6 114190473.05006  88979687.24005  21729701.144 5  21729700.785 7

  21494448.809 7 112954140.92007  88016247.36708  21494453.825 8  21494454.485 7

  25154993.183 7 132190456.75507
  25155005.547 7  98713810.68907  25155002.626 7 101288919.23807
  21493944.349 8 112951450.92608  88014157.59008  21493949.214 8  21493949.578 7

  23431045.313 6 123131089.30506  95946381.69706  23431051.929 6  23431051.899 6

  22011477.156 7 117622656.33207  91484343.17007                  22011490.150 7

  23776301.469 6 124945465.68806  97360190.19804  23776302.714 4

  22667484.179 6 119118594.69706  92819797.00707  22667492.291 7  22667492.204 7

  21323329.250 7 113665345.52207

  25785591.639 7 135504217.59707
  25785599.242 7 101188434.00107  25785596.448 7 103828063.94407
  26168418.149 6 137515987.18506
  26168431.065 5 102690556.91005  26168428.633 5 105369422.64405
  28030980.048 5 147303830.03805
  28030984.949 5 109999666.18105  28030984.669 7 112869209.12207
  23974300.191 8 125985857.42508
  23974309.039 8  94080432.48108  23974306.362 8  96534692.16708
  21779733.251 5 116466150.60405  90584903.70306                  21779744.110 6

  21694019.312 7 114002971.61507  88833556.84706  21694022.289 6

  20603811.092 7 109945918.54707

  20796145.000 8 111167400.55708  86463576.96908                  20796156.348 8

  25541659.188 7 134222515.61207
  25541662.855 7 100231251.94507  25541660.725 8 102845951.97508
  23025695.298 7 122956038.19607  95632644.14307                  23025702.733 7

  22609896.631 4                                                  22609884.651 5

  25193503.941 7 132392931.32207
  25193514.482 7  98864998.38807  25193512.186 8 101444057.16008
 24  1 21 14 46 15.0000000  0 24G20G13E05G11G12E15G05G17R11G22G06R10
                                E03E27E08E30R20G19R06R05E02R09R21E34
  20160669.318 7 105945173.01807  82554772.83107  20160671.411 7

  24333777.439 6 127874876.42206  99642780.81503  24333777.261 3

  24781240.930 6 130226271.14306
  24781253.459 7  97246920.40407  24781251.034 7  99783779.67507
  21729843.795 6 114191252.41606  88980294.53605  21729849.410 5  21729849.158 7

  21494248.456 7 112953088.29907  88015427.14608  21494253.478 8  21494254.182 7

  25154998.558 7 132190485.00007
  25155010.876 7  98713831.79307  25155007.956 7 101288940.88807
  21493510.103 8 112949169.03308  88012379.50108  21493514.975 8  21493515.383 7

  23431386.299 6 123132881.65806  95947778.34406  23431392.980 6  23431393.130 6

  22011380.400 7 117622138.33807  91483940.29807                  22011393.285 7

  23776959.002 6 124948920.92806  97362882.60004  23776960.243 4

  22667785.198 6 119120176.32106  92821029.44507  22667793.262 7  22667793.364 7

  21323825.377 7 113667989.61907

  25785210.011 7 135502212.11707
  25785217.587 7 101186936.39507  25785214.838 7 103826527.27307
  26168110.796 6 137514372.05206
  26168123.644 5 102689350.81205  26168121.407 5 105368185.07405
  28030567.966 5 147301664.63505
  28030572.778 5 109998049.18005  28030572.615 7 112867549.94407
  23974459.273 8 125986693.44908
  23974468.147 8  94081056.78308  23974465.479 8  96535332.75608
  21779769.546 6 116466347.16406  90585056.57406                  21779780.722 6

  21694269.198 7 114004284.87007  88834580.16106  21694272.190 6

  20603236.633 7 109942852.81107

  20796367.702 8 111168591.16408  86464503.00908                  20796379.051 8

  25542190.154 6 134225305.97106
  25542193.841 7 100233335.75807  25542191.735 8 102848090.11308
  23026403.424 7 122959819.48207  95635585.14707                  23026411.084 7

  22609698.131 4                                                  22609687.278 5

  25193691.092 7 132393914.91107
  25193701.668 7  98865732.89807  25193699.373 8 101444810.82308
 24  1 21 14 46 16.0000000  0 24G20G13E05G11G12E15G05G17R11G22G06R10
                                E03E27E08E30R20G19R06R05E02R09R21E34
  20160742.584 7 105945558.33307  82555073.12607  20160744.723 7

  24333301.506 6 127872374.94706  99640831.62403  24333301.288 3

  24781153.250 6 130225810.41006
  24781165.803 7  97246576.36207  24781163.338 7  99783426.65107
  21729992.018 6 114192031.67406  88980901.74705  21729997.644 5  21729997.491 7

  21494048.204 7 112952036.14707  88014607.29208  21494053.217 8  21494053.900 7

  25155004.016 7 132190513.10907
  25155016.237 7  98713852.79107  25155013.292 7 101288962.43607
  21493075.954 8 112946887.45908  88010601.65809  21493080.794 9  21493081.282 7

  23431727.374 6 123134674.19106  95949175.13206  23431734.053 6  23431734.252 6

  22011283.566 7 117621620.96607  91483537.89607                  22011296.470 7

  23777616.562 6 124952376.10006  97365574.94504  23777617.751 4

  22668086.119 6 119121757.72206  92822261.71107  22668094.185 7  22668094.321 7

  21324321.638 7 113670633.98307

  25784828.398 6 135500206.56206
  25784835.925 7 101185438.73607  25784833.218 7 103824990.54307
  26167803.425 6 137512757.14906
  26167816.409 5 102688144.86905  26167814.117 5 105366947.67405
  28030155.825 5 147299498.87705
  28030160.573 5 109996431.91005  28030160.493 7 112865890.46207
  23974618.368 8 125987529.75508
  23974627.295 8  94081681.29808  23974624.624 8  96535973.56108
  21779805.581 6 116466543.47406  90585209.26506                  21779817.260 6

  21694519.072 7 114005598.38107  88835603.67306  21694522.150 6

  20602662.358 7 109939787.40707

  20796590.637 8 111169782.46408  86465429.57508                  20796601.957 8

  25542721.132 6 134228096.28506
  25542724.817 7 100235419.38207  25542722.689 7 102850228.09607
  23027111.466 7 122963600.48807  95638525.93207                  23027118.984 7

                                                                  22609490.505 5

  25193878.207 7 132394898.27907
  25193888.754 7  98866467.23207  25193886.495 8 101445564.31108
 24  1 21 14 46 17.0000000  0 24G20G13E05G11G12E15G05G17R11G22G06R10
                                E03E27E08E30R20G19R06R05E02R09R21E34
  20160816.091 7 105945944.03707  82555373.70507  20160818.102 7

  24332825.551 6 127869873.09206  99638882.13803  24332825.163 3

  24781065.613 7 130225349.89707
  24781078.174 7  97246232.47007  24781075.647 7  99783073.78907
  21730140.413 6 114192810.84606  88981508.89405  21730145.869 5  21730145.730 7

  21493848.142 7 112950984.51107  88013787.83908  21493853.058 8  21493853.798 7

  25155009.399 7 132190541.10207
  25155021.558 7  98713873.69807  25155018.563 7 101288983.88007
  21492641.831 8 112944606.21208  88008824.07009  21492646.675 9  21492647.288 7

  23432068.633 6 123136466.92106  95950572.07306  23432075.162 6  23432075.354 6

  22011186.686 7 117621104.21507  91483135.97807                  22011199.932 7

  23778274.107 6 124955831.24706  97368267.26704  23778275.240 4

  22668386.975 6 119123338.93006  92823493.82507  22668395.062 7  22668395.274 7

  21324817.824 7 113673278.64307

  25784446.697 7 135498200.94807
  25784454.269 7 101183941.02107  25784451.580 7 103823453.75707
  26167495.994 6 137511142.45106
  26167508.991 5 102686939.10505  26167506.839 5 105365710.42205
  28029743.636 5 147297332.77205
  28029748.309 5 109994814.37405  28029748.334 7 112864230.73407
  23974777.554 8 125988366.37108
  23974786.538 8  94082306.04008  23974783.814 8  96536614.60308
  21779842.322 6 116466739.58106  90585361.77906                  21779853.860 6

  21694769.235 7 114006912.14407  88836627.38606  21694772.149 6

  20602087.965 7 109936722.36507

  20796813.460 8 111170974.47108  86466356.68808                  20796824.907 8

  25543252.128 6 134230886.68006
  25543255.778 7 100237503.14307  25543253.687 8 102852366.22608
  23027819.635 7 122967381.24007  95641466.52307                  23027826.725 7

                                                                  22609293.396 5

  25194065.189 7 132395881.41307
  25194075.850 7  98867201.39007  25194073.554 8 101446317.62308
 24  1 21 14 46 18.0000000  0 24G20G13E05G11G12E15G05G17R11G22G06R10
                                E03E27E08E30R20G19R06R05E02R09R21E34
  20160889.678 7 105946330.40907  82555674.79207  20160891.634 7

  24332349.282 6 127867371.12206  99636932.56403  24332348.962 3

  24780978.118 6 130224889.82506
  24780990.620 7  97245888.92807  24780988.051 7  99782721.28107
  21730288.656 6 114193590.14306  88982116.13205  21730294.126 5  21730294.031 7

  21493648.209 7 112949933.59507  88012968.94708  21493653.042 8  21493653.816 7

  25155014.769 7 132190569.18607
  25155026.927 7  98713894.67307  25155023.870 7 101289005.40307
  21492207.818 8 112942325.51908  88007046.90909  21492212.659 9  21492213.292 7

  23432409.870 6 123138260.08406  95951969.34806  23432416.351 6  23432416.492 6

  22011090.071 7 117620588.33007  91482734.73907                  22011103.499 7

  23778931.673 6 124959286.58706  97370959.74404  23778932.783 4

  22668687.881 6 119124920.13306  92824725.93407  22668695.935 7  22668696.189 7

  21325314.243 7 113675923.83107

  25784065.069 6 135496195.50306
  25784072.650 7 101182443.46007  25784069.978 7 103821917.13007
  26167188.734 6 137509528.24506
  26167201.871 5 102685733.69305  26167199.512 5 105364473.58305
  28029331.283 5 147295166.54205
  28029335.958 5 109993196.74505  28029336.098 7 112862570.91107
  23974936.837 8 125989203.52408
  23974945.871 8  94082931.18808  23974943.112 8  96537256.05408
  21779879.498 6 116466935.64306  90585514.29506                  21779890.496 6

  21695019.352 7 114008226.38607  88837651.46906  21695022.243 6

  20601513.393 7 109933657.93407

  20797036.447 8 111172167.38908  86467284.52208                  20797048.173 8

  25543783.047 6 134233677.31906
  25543786.799 7 100239587.12907  25543784.712 8 102854504.57208
  23028527.464 7 122971161.95007  95644407.07807                  23028534.692 7

                                                                  22609096.649 5

  25194252.246 7 132396864.54207
  25194262.917 7  98867935.54607  25194260.667 8 101447070.93808
 24  1 21 14 46 19.0000000  0 24G20G13E05G11G12E15G05G17R11G22G06R10
                                E03E27E08E30R20G19R06R05E02R09R21E34
  20160963.298 7 105946717.37607  82555976.31207  20160965.268 7

  24331873.184 6 127864869.02506  99634982.87803  24331872.806 3

  24780890.660 6 130224430.23206
  24780903.123 7  97245545.72207  24780900.521 7  99782369.12207
  21730436.782 6 114194369.60806  88982723.50905  21730442.418 5  21730442.306 7

  21493448.490 7 112948883.42407  88012150.63408  21493453.165 8  21493454.074 7

  25155020.158 7 132190597.38607
  25155032.227 7  98713915.74807  25155029.265 7 101289027.02707
  21491773.911 8 112940045.41508  88005270.20508  21491778.751 8  21491779.532 7

  23432751.288 6 123140053.66906  95953366.95106  23432757.612 6  23432757.871 6

  22010993.615 7 117620073.33207  91482334.17707                  22011007.325 7

  23779589.224 6 124962742.11506  97373652.36504  23779590.331 4

  22668988.790 6 119126501.37406  92825958.07407  22668996.813 7  22668997.025 7

  21325810.548 7 113678569.56107

  25783683.453 7 135494190.25407
  25783691.050 7 101180946.02307  25783688.387 7 103820380.63107
  26166881.502 6 137507914.49506
  26166894.780 5 102684528.61305  26166892.495 5 105363237.08305
  28028918.903 5 147293000.22705
  28028923.678 5 109991579.03505  28028923.844 7 112860911.00107
  23975096.214 8 125990041.22108
  23975105.288 8  94083556.73808  23975102.504 8  96537897.92908
  21779916.249 6 116467131.78506  90585666.83206                  21779927.325 6

  21695269.616 7 114009541.11507  88838675.93006  21695272.430 6

  20600939.186 7 109930594.11107

  20797259.958 8 111173361.25908  86468213.08908                  20797271.607 8

  25544314.032 7 134236468.20307
  25544317.842 7 100241671.30407  25544315.771 8 102856643.09508
  23029235.667 7 122974942.66307  95647347.63807                  23029242.641 7

                                                                  22608899.365 5

  25194439.307 7 132397847.69607
  25194449.962 7  98868669.72307  25194447.759 8 101447824.26108
 24  1 21 14 46 20.0000000  0 24G20G13E05G11G12E15G05G17R11G22G06R10
                                E03E27E08E30R20G19R06R05E02R09R21E34
  20161036.942 7 105947104.55107  82556278.00907  20161038.942 7

  24331396.908 6 127862366.47706  99633032.85503  24331396.538 3

  24780803.200 7 130223970.73307
  24780815.683 7  97245202.60107  24780813.078 7  99782017.04307
  21730584.925 6 114195148.87806  88983330.73505  21730590.675 5  21730590.566 7

  21493248.711 7 112947833.64707  88011332.63208  21493253.369 8  21493254.207 7

  25155025.459 7 132190625.38107
  25155037.555 7  98713936.65807  25155034.586 7 101289048.47707
  21491340.050 8 112937765.55408  88003493.69008  21491344.892 8  21491345.671 7

  23433092.744 6 123141847.35406  95954764.63406  23433098.895 6  23433099.213 6

  22010897.376 7 117619558.85807  91481934.02007                  22010911.192 7

  23780246.819 6 124966197.51406  97376344.88405  23780247.870 5

  22669289.487 6 119128082.30206  92827189.96807  22669297.632 7  22669297.942 7

  21326306.831 7 113681215.47707

  25783301.780 7 135492184.84807
  25783309.471 7 101179448.48107  25783306.801 7 103818844.02007
  26166574.379 6 137506300.88106
  26166587.658 5 102683323.64505  26166585.487 5 105362000.68505
  28028506.378 6 147290833.46106
  28028511.380 5 109989961.00105  28028511.510 7 112859250.73907
  23975255.640 8 125990879.12308
  23975264.740 8  94084182.44608  23975261.951 8  96538539.95608
  21779952.782 6 116467327.55106  90585819.11806                  21779963.958 6

  21695519.865 7 114010856.01707  88839700.52506  21695522.653 6

  20600365.129 7 109927530.54007

  20797483.553 8 111174555.71408  86469142.11608                  20797495.083 8

  25544845.066 7 134239259.01407
  25544848.857 7 100243755.31607  25544846.770 8 102858781.47408
  23029943.464 7 122978723.04107  95650287.94507                  23029950.534 7

                                                                  22608702.229 5

  25194626.256 7 132398830.52007
  25194636.962 7  98869403.65607  25194634.792 8 101448577.33608
 24  1 21 14 46 21.0000000  0 24G20G13E05G11G12E15G05G17R11G22G06R10
                                E03E27E08E30R20G19R06R05E02R09R21E34
  20161110.824 7 105947492.49407  82556580.26607  20161112.746 7

  24330920.610 6 127859863.90606  99631082.81703  24330920.288 3

  24780715.918 7 130223511.80807
  24780728.377 7  97244859.89707  24780725.721 7  99781665.41007
  21730733.408 6 114195928.38306  88983938.14405  21730738.972 5  21730738.884 7

  21493049.127 7 112946784.72307  88010515.29108  21493053.738 8  21493054.643 7

  25155030.789 7 132190653.58207
  25155042.968 7  98713957.72007  25155039.945 7 101289070.09307
  21490906.374 8 112935486.39008  88001717.71508  21490911.167 8  21490912.074 7

  23433434.272 6 123143641.57706  95956162.73506  23433440.281 6  23433440.501 6

  22010801.627 7 117619045.35907  91481534.62507                  22010815.304 7

  23780904.586 6 124969653.21206  97379037.63505  23780905.476 5

  22669590.470 6 119129663.37206  92828421.97307  22669598.470 7  22669598.861 7

  21326803.375 7 113683862.04407

  25782920.239 7 135490179.75007
  25782927.913 7 101177951.16507  25782925.251 7 103817307.64507
  26166267.415 6 137504687.84406
  26166280.687 5 102682119.09905  26166278.616 6 105360764.71506
  28028093.970 6 147288666.67206
  28028099.214 5 109988342.93805  28028099.195 7 112857590.48207
  23975415.196 8 125991717.67608
  23975424.316 8  94084808.64008  23975421.503 8  96539182.48808
  21779989.728 6 116467523.46506  90585971.48906                  21780000.469 6

  21695770.068 7 114012171.50907  88840725.58406  21695772.988 6

  20599791.307 7 109924467.71307

  20797707.186 8 111175751.22608  86470071.96008                  20797718.817 8

  25545376.192 7 134242050.05507
  25545379.940 7 100245839.61007  25545377.855 8 102860920.14408
  23030651.668 7 122982503.55507  95653228.33707                  23030658.622 7

                                                                  22608505.312 5

  25194813.310 7 132399813.46907
  25194824.017 7  98870137.67907  25194821.840 8 101449330.51208
 24  1 21 14 46 22.0000000  0 24G20G13E05G11G12E15G05G17R11G22G06R10
                                E03E27E08E30R20G19R06R05E02R09R21E34
  20161184.670 7 105947880.94207  82556882.92407  20161186.649 7

  24330444.381 6 127857361.12106  99629132.60403  24330444.006 3

  24780628.757 6 130223053.23406
  24780641.086 7  97244517.45407  24780638.444 7  99781314.03607
  21730881.855 6 114196707.94306  88984545.59405  21730887.269 5  21730887.223 7

  21492849.702 7 112945736.43107  88009698.44308  21492854.227 8  21492855.016 7

  25155036.128 7 132190681.80607
  25155048.323 7  98713978.80607  25155045.284 7 101289091.72607
  21490472.801 8 112933207.71708  87999942.12409  21490477.540 9  21490478.412 7

  23433775.688 6 123145436.14406  95957561.10406  23433781.725 6  23433782.161 6

  22010705.694 7 117618532.62207  91481135.82107                  22010719.459 7

  23781562.340 6 124973108.99906  97381730.45905  23781563.090 5

  22669891.298 6 119131244.35106  92829653.91007  22669899.294 7  22669899.703 7

  21327299.823 7 113686509.03807

  25782538.657 7 135488174.69807
  25782546.318 7 101176453.88907  25782543.735 7 103815771.30907
  26165960.746 6 137503075.17706
  26165973.791 5 102680914.82505  26165971.707 5 105359529.04505
  28027681.595 6 147286499.67606
  28027686.959 5 109986724.74705  28027686.833 7 112855930.07607
  23975574.845 8 125992556.66808
  23975583.968 8  94085435.15908  23975581.151 8  96539825.34508
  21780026.085 6 116467719.28106  90586123.78506                  21780037.029 6

  21696020.433 7 114013487.38607  88841750.94006  21696023.390 6

  20599217.615 7 109921405.40007

  20797931.146 8 111176947.58408  86471002.46308                  20797942.577 8

  25545907.316 7 134244841.21107
  25545910.999 7 100247923.79507  25545908.918 8 102863058.72008
  23031359.927 7 122986283.95607  95656168.66007                  23031366.844 7

                                                                  22608307.085 5

  25195000.365 7 132400796.32107
  25195011.034 7  98870871.62807  25195008.886 8 101450083.60708
 24  1 21 14 46 23.0000000  0 24G20G13E05G11G12E15G05G17R11G22G06R10
                                E03E27E08E30R20G19R06R05E02R09R21E34
  20161258.732 7 105948269.73407  82557185.85007  20161260.623 7

  24329968.037 6 127854857.81206  99627181.98703  24329967.586 3

  24780541.504 6 130222594.72206
  24780553.832 7  97244175.06107  24780551.186 7  99780962.70307
  21731030.307 6 114197487.24006  88985152.83805  21731035.521 5  21731035.526 7

  21492650.311 8 112944688.47608  88008881.86008  21492654.788 8  21492655.627 7

  25155041.394 7 132190709.74207
  25155053.714 7  98713999.67607  25155050.594 7 101289113.13407
  21490039.226 8 112930929.21408  87998166.66608  21490043.945 8  21490044.885 7

  23434117.252 6 123147230.73406  95958959.49007  23434123.178 7  23434123.709 6

  22010609.738 7 117618020.37307  91480737.40807                  22010623.556 7

  23782219.970 6 124976564.57306  97384423.11705  23782220.656 5

  22670192.018 6 119132824.95806  92830885.55607  22670200.050 7  22670200.361 7

  21327796.483 7 113689156.17907

  25782157.068 7 135486169.46307
  25782164.740 7 101174956.46707  25782162.152 7 103814234.83307
  26165653.825 6 137501462.57606
  26165666.824 5 102679710.61105  26165664.775 6 105358293.41806
  28027269.129 6 147284332.17606
  28027274.512 5 109985106.15905  28027274.364 7 112854269.26307
  23975734.537 8 125993395.80408
  23975743.665 8  94086061.78308  23975740.817 8  96540468.32508
  21780062.763 6 116467914.68506  90586275.75906                  21780073.786 6

  21696270.798 7 114014803.35607  88842776.36806  21696273.805 6

  20598643.658 7 109918343.27907

  20798155.139 8 111178144.50108  86471933.40408                  20798166.480 8

  25546438.434 6 134247632.15906
  25546442.037 6 100250008.03606  25546440.023 7 102865197.31007
  23032067.815 7 122990063.96907  95659108.66607                  23032074.828 7

                                                                  22608108.639 5

  25195187.269 7 132401778.79507
  25195197.990 7  98871605.29307  25195195.836 8 101450836.41008
 24  1 21 14 46 24.0000000  0 24G20G13E05G11G12E15G05G17R11G22G06R10
                                E03E27E08E30R20G19R06R05E02R09R21E34
  20161332.962 7 105948659.41607  82557489.48607  20161334.780 7

  24329491.645 6 127852354.55906  99625231.40703  24329491.206 3

  24780454.320 6 130222136.85006
  24780466.705 7  97243833.14907  24780464.047 7  99780611.87707
  21731178.709 6 114198266.88306  88985760.35505  21731183.862 5  21731183.882 7

  21492451.128 8 112943641.43308  88008065.98608  21492455.524 8  21492456.544 7

  25155046.716 7 132190737.96807
  25155059.040 7  98714020.75807  25155055.962 7 101289134.76907
  21489605.822 8 112928651.46908  87996391.79508  21489610.502 8  21489611.416 7

  23434458.949 6 123149025.95506  95960358.36707  23434464.752 7  23434465.376 6

  22010513.730 7 117617509.16707  91480339.80307                  22010527.991 7

  23782877.747 6 124980020.52806  97387116.07105  23782878.297 5

  22670492.688 6 119134405.76806  92832117.36007  22670500.839 7  22670501.212 7

  21328293.121 7 113691804.03907

  25781775.515 7 135484164.56107
  25781783.236 7 101173459.29407  25781780.635 7 103812698.60307
  26165346.943 6 137499850.62706
  26165360.128 5 102678506.89805  26165358.154 6 105357058.28306
  28026856.754 6 147282164.72106
  28026862.063 5 109983487.64305  28026861.973 7 112852608.51807
  23975894.348 8 125994235.66308
  23975903.474 8  94086688.95608  23975900.623 8  96541111.84608
  21780099.872 6 116468110.28506  90586427.90606                  21780110.378 6

  21696521.381 7 114016119.99607  88843802.31906  21696524.354 6

  20598069.920 7 109915281.95507

  20798379.333 8 111179342.54408  86472865.21708                  20798390.549 8

  25546969.565 6 134250423.64006
  25546973.192 7 100252092.47907  25546971.175 8 102867336.15808
  23032775.831 7 122993844.14607  95662048.80307                  23032782.775 7

                                                                  22607911.610 5

  25195374.264 7 132402761.45207
  25195384.976 7  98872339.10007  25195382.851 8 101451589.36008
 24  1 21 14 46 25.0000000  0 24G20G13E05G11G12E15G05G17R11G22G06R10
                                E03E27E08E30R20G19R06R05E02R09R21E34
  20161407.295 7 105949049.74207  82557793.64507  20161409.054 7

  24329015.171 6 127849851.10706  99623280.68303  24329014.809 3

  24780367.320 6 130221679.35506
  24780379.603 7  97243491.52107  24780377.030 7  99780261.33807
  21731327.001 6 114199046.59006  88986367.92105  21731332.222 5  21731332.375 7

  21492252.018 8 112942595.06008  88007250.63408  21492256.389 8  21492257.567 7

  25155052.058 7 132190766.25207
  25155064.389 7  98714041.87607  25155061.384 7 101289156.43707
  21489172.568 8 112926374.25908  87994617.34208  21489177.161 8  21489178.067 7

  23434800.586 6 123150821.51106  95961757.50507  23434806.393 7  23434807.010 6

  22010418.283 7 117616998.75207  91479942.81207                  22010432.466 7

  23783535.407 6 124983476.60506  97389809.11705  23783535.957 5

  22670793.463 6 119135986.55206  92833349.14007  22670801.613 7  22670801.943 7

  21328790.156 7 113694452.34307

  25781393.969 7 135482159.77907
  25781401.726 7 101171962.21007  25781399.173 7 103811162.45507
  26165040.245 6 137498239.06206
  26165053.552 5 102677303.46505  26165051.438 6 105355823.44406
  28026444.134 6 147279997.10906
  28026449.537 5 109981868.98605  28026449.514 7 112850947.61407
  23976054.220 8 125995075.99108
  23976063.379 8  94087316.47408  23976060.532 8  96541755.74008
  21780135.889 6 116468305.83606  90586580.00406                  21780147.068 6

  21696772.028 7 114017437.05407  88844828.59906  21696774.984 6

  20597496.385 7 109912221.16507

  20798603.662 8 111180541.45308  86473797.70108                  20798614.757 8

  25547500.740 7 134253215.20407
  25547504.448 7 100254177.02407  25547502.415 8 102869475.09608
  23033483.891 7 122997624.23107  95664988.88907                  23033490.586 7

                                                                  22607714.720 5

  25195561.310 7 132403744.04407
  25195571.936 7  98873072.86007  25195569.849 8 101452342.26708
 24  1 21 14 46 26.0000000  0 24G20G13E05G11G12E15G05G17R11G22G06R10
                                E03E27E08E30R20G19R06R05E02R09R21E34
  20161481.550 7 105949440.42907  82558098.13007  20161483.404 7

  24328538.636 6 127847347.37206  99621329.72303  24328538.357 3

  24780280.318 6 130221222.15506
  24780292.674 7  97243150.10007  24780290.020 7  99779911.01507
  21731475.379 6 114199826.26706  88986975.46705  21731480.577 5  21731480.712 7

  21492053.029 8 112941549.25308  88006435.72308  21492057.366 8  21492058.542 7

  25155057.392 7 132190794.46507
  25155069.711 7  98714062.94507  25155066.677 7 101289178.06807
  21488739.278 8 112924097.45608  87992843.20508  21488743.897 8  21488744.790 7

  23435142.251 6 123152617.34406  95963156.86107  23435148.087 7  23435148.600 6

  22010322.848 7 117616489.05307  91479546.38207                  22010336.923 7

  23784192.984 6 124986932.71206  97392502.19205  23784193.643 5

  22671094.153 6 119137567.16706  92834580.79307  22671102.357 7  22671102.704 7

  21329287.129 7 113697101.00607

  25781012.495 7 135480155.00007
  25781020.257 7 101170465.12807  25781017.692 7 103809626.32107
  26164733.614 6 137496627.78106
  26164746.897 5 102676100.24905  26164744.869 6 105354588.83406
  28026031.552 6 147277829.21106
  28026037.007 6 109980250.10406  28026037.005 7 112849286.50307
  23976214.198 8 125995916.70008
  23976223.358 8  94087944.26608  23976220.473 8  96542399.90708
  21780171.553 6 116468501.20906  90586731.97306                  21780183.127 6

  21697022.710 7 114018754.43707  88845855.12906  21697025.668 6

  20596923.098 7 109909160.82807

  20798828.081 8 111181741.13608  86474730.78408                  20798839.152 8

  25548032.001 6 134256006.88706
  25548035.762 7 100256261.73107  25548033.702 7 102871614.18107
  23034191.470 7 123001404.18707  95667928.83507                  23034198.506 7

                                                                  22607516.730 5

  25195748.274 7 132404726.49307
  25195758.883 7  98873806.50307  25195756.796 8 101453095.04708
 24  1 21 14 46 27.0000000  0 24G20G13E05G11G12E15G05G17R11G22G06R10
                                E03E27E08E30R20G19R06R05E02R09R21E34
  20161555.909 7 105949831.47907  82558402.89907  20161557.807 7

  24328062.178 6 127844843.37506  99619378.56103  24328061.852 3

  24780193.332 6 130220765.26906
  24780205.721 7  97242808.92807  24780203.083 7  99779560.92507
  21731623.678 6 114200605.95606  88987583.02105  21731628.936 5  21731629.181 7

  21491854.159 8 112940504.04708  88005621.28008  21491858.460 8  21491859.733 7

  25155062.750 7 132190822.65807
  25155075.085 7  98714084.01707  25155072.042 7 101289199.67007
  21488306.047 8 112921821.09908  87991069.41808  21488310.726 8  21488311.491 7

  23435483.817 6 123154413.47106  95964556.44507  23435489.840 7  23435490.464 6

  22010227.745 7 117615980.08207  91479150.51007                  22010241.579 7

  23784850.686 6 124990388.88306  97395195.31105  23784851.316 5

  22671394.966 6 119139147.69706  92835812.37807  22671403.087 7  22671403.281 7

  21329784.210 7 113699750.05207

  25780630.940 6 135478150.27606
  25780638.811 7 101168968.09607  25780636.221 7 103808090.23707
  26164427.074 6 137495016.86206
  26164440.448 5 102674897.27505  26164438.337 6 105353354.49906
  28025618.850 6 147275661.06706
  28025624.342 5 109978631.01605  28025624.405 7 112847625.21007
  23976374.265 8 125996757.80508
  23976383.397 8  94088572.36208  23976380.551 8  96543044.39308
  21780208.027 6 116468696.47906  90586883.85106                  21780219.611 6

  21697273.425 7 114020072.18207  88846881.94006  21697276.414 6

  20596349.749 7 109906100.93507

  20799052.645 8 111182941.61508  86475664.49708                  20799063.673 8

  25548563.122 6 134258798.62206
  25548567.028 7 100258346.37907  25548564.997 7 102873753.21207
  23034899.462 7 123005183.99007  95670868.69107                  23034906.204 7

                                                                  22607318.351 5

  25195935.242 7 132405708.80707
  25195945.753 7  98874540.05107  25195943.761 8 101453847.73108
 24  1 21 14 46 28.0000000  0 24G20G13E05G11G12E15G05G17R11G22G06R10
                                E03E27E08E30R20G19R06R05E02R09R21E34
  20161630.336 7 105950222.57407  82558707.69107  20161632.206 7

  24327585.783 6 127842338.71206  99617426.88803  24327585.285 3

  24780106.414 6 130220308.26606
  24780118.797 7  97242467.66507  24780116.110 7  99779210.76707
  21731771.888 6 114201385.22606  88988190.25005  21731777.211 5  21731777.436 7

  21491655.353 8 112939459.00908  88004806.96908  21491659.589 8  21491660.845 7

  25155067.943 7 132190850.40007
  25155080.367 7  98714104.73407  25155077.313 7 101289220.93507
  21487872.916 8 112919544.75608  87989295.64008  21487877.556 8  21487878.335 7

  23435825.520 6 123156209.46706  95965955.93007  23435831.579 7  23435832.376 6

  22010132.774 7 117615471.40107  91478754.87007                  22010146.212 7

  23785508.297 6 124993844.69006  97397888.15205  23785508.908 5

  22671695.609 6 119140727.64506  92837043.50707  22671703.705 7  22671703.939 7

  21330281.017 7 113702399.05307

  25780249.317 7 135476145.15307
  25780257.334 7 101167470.75907  25780254.658 7 103806553.84107
  26164120.539 6 137493405.83506
  26164133.977 5 102673694.24005  26164131.841 6 105352120.07006
  28025205.998 5 147273492.25405
  28025211.672 5 109977011.45505  28025211.623 7 112845963.38707
  23976534.312 8 125997598.88208
  23976543.447 8  94089200.44208  23976540.590 8  96543688.85608
  21780244.387 6 116468891.19806  90587035.29206                  21780255.936 6

  21697524.148 7 114021389.85107  88847908.69406  21697527.156 6

  20595776.550 7 109903041.07207

  20799277.122 8 111184142.46608  86476598.49608                  20799288.224 8

  25549094.394 6 134261590.12206
  25549098.373 7 100260431.03207  25549096.319 7 102875892.23807
  23035607.269 7 123008963.19107  95673808.07707                  23035613.802 7

                                                                  22607120.992 5

  25196122.110 7 132406690.56507
  25196132.544 7  98875273.19207  25196130.567 8 101454599.99308
 24  1 21 14 46 29.0000000  0 24G20G13E05G11G12E15G05G17R11G22G06R10
                                E03E27E08E30R20G19R06R05E02R09R21E34
  20161704.735 7 105950614.01507  82559012.72707  20161706.676 7

  24327108.893 6 127839833.49506  99615474.78503  24327108.645 3

  24780019.512 6 130219851.33406
  24780031.794 7  97242126.44707  24780029.105 7  99778860.65107
  21731920.259 6 114202164.23106  88988797.27205  21731925.445 5  21731925.668 7

  21491456.572 8 112938414.30908  88003992.92008  21491460.785 8  21491462.023 7

  25155073.172 7 132190877.85007
  25155085.622 7  98714125.23807  25155082.545 7 101289241.97207
  21487439.741 8 112917268.58908  87987522.00308  21487444.425 8  21487445.159 7

  23436167.198 6 123158005.49706  95967355.43807  23436173.319 7  23436174.219 6

  22010037.748 7 117614963.18907  91478359.58807                  22010051.190 7

  23786165.702 6 124997300.28606  97400580.82405  23786166.474 5

  22671996.295 6 119142307.24006  92838274.36307  22672004.256 7  22672004.662 7

  21330777.821 7 113705048.15407

  25779867.726 7 135474139.83507
  25779875.783 7 101165973.27307  25779873.038 7 103805017.30307
  26163813.900 6 137491794.87106
  26163827.426 5 102672491.27305  26163825.181 6 105350885.71406
  28024793.100 6 147271322.91106
  28024798.921 5 109975391.51705  28024798.789 7 112844301.16907
  23976694.384 8 125998440.10308
  23976703.557 8  94089828.62708  23976700.649 8  96544333.42508
  21780280.971 6 116469085.51906  90587186.41906                  21780292.472 6

  21697774.909 7 114022707.60707  88848935.51606  21697777.925 6

  20595202.766 7 109899981.42907

  20799501.885 8 111185343.86208  86477532.91808                  20799512.908 8

  25549625.603 6 134264381.51606
  25549629.551 7 100262515.48607  25549627.524 7 102878031.08007
  23036315.070 7 123012741.99507  95676747.16007                  23036321.407 7

                                                                  22606923.355 5

  25196308.882 7 132407671.93407
  25196319.313 7  98876006.03507  25196317.320 8 101455351.95608
 24  1 21 14 46 30.0000000  0 24G20G13E05G11G12E15G05G17R11G22G06R10
                                E03E27E08E30R20G19R06R05E02R09R21E34
  20161779.390 7 105951005.96807  82559318.17307  20161781.258 7

  24326632.008 6 127837327.97606  99613522.44203  24326631.903 3

  24779932.647 6 130219394.65406
  24779944.883 7  97241785.41907  24779942.167 7  99778510.72607
  21732068.376 6 114202943.18106  88989404.25205  21732073.662 5  21732073.924 7

  21491257.874 8 112937370.14308  88003179.28908  21491262.084 8  21491263.313 7

  25155078.305 7 132190905.21107
  25155090.825 7  98714145.67607  25155087.725 7 101289262.94507
  21487006.677 8 112914992.81408  87985748.67308  21487011.375 8  21487012.096 7

  23436509.010 6 123159801.76506  95968755.13307  23436515.103 7  23436515.997 6

  22009942.629 7 117614455.64207  91477964.83407                  22009956.235 7

  23786823.331 6 125000755.88006  97403273.49204  23786824.053 4

  22672296.855 6 119143886.66206  92839505.08307  22672304.781 7  22672305.221 7

  21331274.872 7 113707697.58407

  25779486.099 6 135472134.48806
  25779494.173 7 101164475.79207  25779491.461 7 103803480.74407
  26163507.314 6 137490184.18606
  26163520.852 5 102671288.46105  26163518.685 6 105349651.53306
  28024380.357 6 147269153.27406
  28024386.127 5 109973771.32305  28024385.877 7 112842638.73207
  23976854.567 8 125999281.65908
  23976863.688 8  94090457.06108  23976860.798 8  96544978.25808
  21780317.191 6 116469279.62906  90587337.40806                  21780328.862 6

  21698025.683 7 114024025.64507  88849962.55806  21698028.738 6

  20594629.667 7 109896922.18707

  20799726.599 8 111186545.98608  86478467.91308                  20799737.737 8

  25550156.782 6 134267172.96306
  25550160.853 6 100264600.15006  25550158.758 7 102880170.08307
  23037023.020 7 123016520.62207  95679686.09007                  23037028.844 7

                                                                  22606725.419 5

  25196495.693 7 132408653.11007
  25196505.981 7  98876738.73307  25196504.031 8 101456103.76708
 24  1 21 14 46 31.0000000  0 24G20G13E05G11G12E15G05G17R11G22G06R10
                                E03E27E08E30R20G19R06R05E02R09R21E34
  20161854.063 7 105951398.89407  82559624.39807  20161856.033 7

  24326155.211 6 127834822.66306  99611570.25603  24326155.112 3

  24779845.892 6 130218938.78006
  24779858.194 7  97241445.00707  24779855.356 7  99778161.43007
  21732216.723 6 114203722.63306  88990011.62305  21732221.972 5  21732222.212 7

  21491059.389 8 112936327.07508  88002366.51208  21491063.597 8  21491064.663 7

  25155083.541 7 132190933.04407
  25155096.153 7  98714166.47507  25155093.014 7 101289284.28007
  21486573.723 8 112912717.98208  87983976.07508  21486578.500 8  21486579.188 7

  23436850.863 6 123161598.80606  95970155.42907  23436857.034 7  23436857.820 6

  22009847.537 7 117613949.32007  91477571.00507                  22009861.571 7

  23787481.129 6 125004212.02306  97405966.59204  23787481.757 4

  22672597.600 6 119145466.46006  92840736.09707  22672605.372 7  22672605.872 7

  21331772.095 7 113710347.90407

  25779104.591 6 135470129.68306
  25779112.704 7 101162978.69607  25779109.933 7 103801944.59607
  26163200.949 6 137488574.30406
  26163214.564 5 102670086.27605  26163212.357 6 105348418.00906
  28023967.546 6 147266983.88906
  28023973.332 5 109972151.30505  28023973.028 7 112840976.46807
  23977014.977 8 126000124.11608
  23977024.010 8  94091086.16908  23977021.095 8  96545623.77608
  21780353.554 6 116469474.14306  90587488.68606                  21780364.966 6

  21698276.611 7 114025344.53607  88850990.26506  21698279.708 6

  20594056.757 7 109893863.90407

  20799951.719 8 111187749.41308  86479403.91608                  20799962.948 8

  25550688.129 7 134269965.00207
  25550692.092 7 100266685.07007  25550690.033 8 102882309.41208
  23037730.445 7 123020299.59707  95682625.31207                  23037736.413 7

                                                                  22606528.448 5

  25196682.504 7 132409634.66107
  25196692.774 7  98877471.71607  25196690.787 8 101456855.86308
 24  1 21 14 46 32.0000000  0 24G20G13E05G11G12E15G05G17R11G22G06R10
                                E03E27E08E30R20G19R06R05E02R09R21E34
  20161928.734 7 105951791.68707  82559930.53507  20161930.749 7

  24325678.279 6 127832316.68006  99609617.55203  24325678.205 3

  24779759.142 6 130218482.80506
  24779771.407 7  97241104.51007  24779768.580 7  99777812.05207
  21732364.841 6 114204501.66606  88990618.66705  21732370.220 5  21732370.379 7

  21490860.893 8 112935284.16708  88001553.86008  21490865.138 8  21490866.217 7

  25155088.694 7 132190960.42307
  25155101.366 7  98714186.92407  25155098.166 7 101289305.25607
  21486140.911 8 112910443.17208  87982203.49508  21486145.634 8  21486146.269 7

  23437192.928 6 123163395.70606  95971555.61907  23437198.943 7  23437199.771 6

  22009752.838 7 117613443.28307  91477177.43207                  22009766.896 7

  23788138.825 6 125007667.78106  97408659.39104  23788139.345 4

  22672898.001 6 119147045.72706  92841966.69807  22672905.865 7  22672906.595 7

  21332269.218 7 113712998.19007

  25778723.065 7 135468124.49707
  25778731.112 7 101161481.31607  25778728.361 8 103800408.15608
  26162894.571 6 137486964.33906
  26162908.089 5 102668884.03005  26162906.024 6 105347184.38806
  28023554.698 6 147264813.81906
  28023560.347 5 109970530.84005  28023560.170 7 112839313.69907
  23977175.322 8 126000966.55108
  23977184.329 8  94091715.25808  23977181.387 8  96546269.27808
  21780389.261 5 116469668.09305  90587639.54006                  21780401.016 6

  21698527.556 7 114026663.34807  88852017.90806  21698530.664 6

  20593483.413 6 109890805.66706

  20800176.868 8 111188953.22408  86480340.20408                  20800188.247 8

  25551219.319 7 134272756.59607
  25551223.287 7 100268769.70407  25551221.223 8 102884448.44108
  23038437.928 7 123024078.00007  95685564.08207                  23038443.781 7

                                                                  22606330.208 5

  25196869.173 7 132410615.64407
  25196879.510 7  98878204.27407  25196877.459 8 101457607.53508
 24  1 21 14 46 33.0000000  0 24G20G13E05G11G12E15G05G17R11G22G06R10
                                E03E27E08E30R20G19R06R05E02R09R21E34
  20162003.504 7 105952185.30707  82560237.30807  20162005.591 7

  24325201.517 6 127829810.76306  99607664.88603  24325201.360 3

  24779672.414 6 130218027.46406
  24779684.851 7  97240764.49807  24779681.893 7  99777463.16607
  21732513.208 6 114205280.99506  88991225.94205  21732518.534 5  21732518.719 7

  21490662.495 8 112934242.18108  88000741.92708  21490666.862 8  21490667.933 7

  25155093.935 7 132190988.09807
  25155106.613 7  98714207.58507  25155103.427 7 101289326.45807
  21485708.213 8 112908169.11508  87980431.50408  21485712.915 8  21485713.575 7

  23437535.041 6 123165193.21606  95972956.28307  23437540.982 7  23437541.573 6

  22009658.587 7 117612938.28907  91476784.65707                  22009672.256 7

  23788796.424 6 125011123.91406  97411352.47704  23788797.017 4

  22673198.554 6 119148625.16606  92843197.43107  22673206.394 7  22673207.311 7

  21332766.505 7 113715649.19107

  25778341.554 7 135466119.66407
  25778349.604 7 101159984.19707  25778346.845 8 103798871.98308
  26162588.394 6 137485355.00206
  26162601.805 5 102667682.27405  26162599.821 6 105345951.27706
  28023141.799 5 147262643.79505
  28023147.460 5 109968910.38005  28023147.239 7 112837650.96907
  23977335.787 8 126001809.70408
  23977344.787 8  94092344.88208  23977341.826 8  96546915.32308
  21780425.857 5 116469862.24105  90587790.54206                  21780437.283 6

  21698778.590 7 114027982.83207  88853046.07806  21698781.746 6

  20592910.191 6 109887748.24906

  20800402.430 8 111190158.15608  86481277.37508                  20800413.731 8

  25551750.590 6 134275548.54306
  25551754.507 7 100270854.48907  25551752.465 7 102886587.62407
  23039145.437 7 123027856.57707  95688502.97107                  23039151.665 7

                                                                  22606133.166 5

  25197055.903 7 132411596.82007
  25197066.175 7  98878936.97307  25197064.177 8 101458359.34608
 24  1 21 14 46 34.0000000  0 24G20G13E05G11G12E15G05G17R11G22G06R10
                                E03E27E08E30R20G19R06R05E02R09R21E34
  20162078.487 7 105952579.53507  82560544.54007  20162080.593 7

  24324724.664 6 127827304.61306  99605712.04903  24324724.425 3

  24779585.767 6 130217572.51406
  24779598.339 7  97240424.76107  24779595.266 7  99777114.56807
  21732661.548 7 114206060.40707  88991833.28305  21732666.849 5  21732666.966 7

  21490464.272 8 112933200.85308  87999930.50608  21490468.706 8  21490469.730 7

  25155099.105 7 132191015.80107
  25155111.880 7  98714228.28407  25155108.656 7 101289347.69007
  21485275.575 8 112905895.56008  87978659.90608  21485280.285 8  21485280.919 7

  23437877.165 6 123166991.12006  95974357.25307  23437883.097 7  23437883.678 6

  22009564.520 7 117612434.09807  91476392.50507                  22009577.961 7

  23789454.347 6 125014580.17006  97414045.65604  23789454.717 4

  22673499.056 6 119150204.57406  92844428.13707  22673506.918 7  22673508.108 7

  21333263.822 7 113718300.63607

  25777960.068 7 135464114.91507
  25777968.137 7 101158487.14607  25777965.298 7 103797335.86807
  26162282.320 6 137483746.07306
  26162295.733 5 102666480.79605  26162293.665 6 105344718.45806
  28022728.758 5 147260473.60405
  28022734.343 5 109967289.78205  28022734.270 7 112835988.11407
  23977496.306 8 126002653.31408
  23977505.313 8  94092974.85108  23977502.341 8  96547561.72708
  21780462.816 5 116470056.34605  90587941.49506                  21780473.653 6

  21699029.787 7 114029302.71807  88854074.55906  21699032.899 6

  20592337.351 7 109884691.33607

  20800627.983 8 111191363.94008  86482215.21508                  20800639.318 8

  25552281.808 6 134278340.67606
  25552285.912 7 100272939.49307  25552283.797 7 102888727.01207
  23039852.802 7 123031635.07407  95691441.81107                  23039859.341 7

  22605953.630 4                                                  22605935.319 5

  25197242.471 7 132412577.93807
  25197252.881 7  98879669.62107  25197250.841 8 101459111.10308
 24  1 21 14 46 35.0000000  0 24G20G13E05G11G12E15G05G17R11G22G06R10
                                E03E27E08E30R20G19R06R05E02R09R21E34
  20162153.594 7 105952974.20907  82560852.10707  20162155.685 7

  24324247.558 6 127824798.18506  99603759.00903  24324247.451 3

  24779499.223 6 130217117.80506
  24779511.769 7  97240085.21607  24779508.732 7  99776766.16207
  21732809.826 7 114206839.76307  88992440.57905  21732815.146 5  21732815.372 7

  21490266.140 8 112932160.06708  87999119.50708  21490270.662 8  21490271.486 7

  25155104.367 7 132191043.40707
  25155117.123 7  98714248.90207  25155113.933 7 101289368.86707
  21484843.020 8 112903622.39908  87976888.61508  21484847.736 8  21484848.408 7

  23438219.415 6 123168789.22106  95975758.37707  23438225.243 7  23438225.812 6

  22009470.604 7 117611930.59507  91476000.89407                  22009483.750 7

  23790112.090 6 125018036.41606  97416738.83604  23790112.439 4

  22673799.665 6 119151783.80306  92845658.70907  22673807.411 7  22673808.859 7

  21333761.329 7 113720952.40507

  25777578.567 7 135462110.15007
  25777586.674 7 101156990.04907  25777583.820 7 103795799.72607
  26161976.344 6 137482137.40206
  26161989.679 5 102665279.51705  26161987.486 6 105343485.83306
  28022315.750 5 147258303.09305
  28022321.326 5 109965668.97705  28022321.294 7 112834325.00607
  23977656.909 8 126003497.26508
  23977665.885 8  94093605.08208  23977662.935 8  96548208.39708
  21780499.611 5 116470250.21905  90588092.32206                  21780510.126 6

  21699280.978 7 114030622.89907  88855103.27006  21699284.124 6

  20591764.262 7 109881634.81607

  20800853.858 8 111192570.45808  86483153.61608                  20800865.005 8

  25552813.158 6 134281132.86306
  25552817.267 6 100275024.55306  25552815.112 7 102890866.45807
  23040560.262 7 123035413.37507  95694380.50607                  23040566.878 7

  22605754.061 4                                                  22605737.043 5

  25197429.132 7 132413558.85307
  25197439.504 7  98880402.12707  25197437.536 8 101459862.72608
 24  1 21 14 46 36.0000000  0 24G20G13E05G11G12E15G05G17R11G22G06R10
                                E03E27E08E30R20G19R06R05E02R09R21E34
  20162228.815 7 105953369.46307  82561160.14007  20162230.862 7

  24323770.595 6 127822291.61006  99601805.85003  24323770.512 3

  24779412.710 6 130216663.54706
  24779425.387 7  97239745.99907  24779422.336 7  99776418.09607
  21732958.083 7 114207619.25407  88993047.97805  21732963.488 5  21732963.615 7

  21490068.213 8 112931120.02508  87998309.08908  21490072.757 8  21490073.580 7

  25155109.642 7 132191071.14907
  25155122.403 7  98714269.63807  25155119.172 7 101289390.11807
  21484410.530 8 112901349.82708  87975117.78708  21484415.299 8  21484415.835 7

  23438561.858 6 123170587.78706  95977159.86007  23438567.488 7  23438568.017 6

  22009376.471 7 117611427.95207  91475609.93707                  22009389.949 7

  23790769.869 6 125021492.88606  97419432.19104  23790770.197 4

  22674100.292 6 119153363.06706  92846889.30707  22674107.909 7  22674109.450 7

  21334258.933 7 113723604.73107

  25777197.127 6 135460105.55806
  25777205.211 7 101155493.11407  25777202.370 7 103794263.74307
  26161670.489 6 137480529.21406
  26161683.683 5 102664078.59605  26161681.440 6 105342253.58706
  28021902.810 5 147256132.47905
  28021908.265 5 109964048.07405  28021908.225 7 112832661.82707
  23977817.687 8 126004341.76708
  23977826.587 8  94094235.71308  23977823.622 8  96548855.47908
  21780535.894 5 116470444.17605  90588243.15606                  21780546.990 6

  21699532.377 7 114031943.58807  88856132.37606  21699535.438 6

  20591191.597 6 109878578.92306

  20801079.753 8 111193777.91208  86484092.74808                  20801090.802 8

  25553344.584 6 134283925.36906
  25553348.719 7 100277109.89507  25553346.539 7 102893006.20707
  23041266.982 7 123039191.69207  95697319.19607                  23041274.400 7

  22605557.305 4                                                  22605539.558 5

  25197615.697 7 132414539.79507
  25197626.147 7  98881134.65407  25197624.214 8 101460614.35508
 24  1 21 14 46 37.0000000  0 24G20G13E05G11G12E15G05G17R11G22G06R10
                                E03E27E08E30R20G19R06R05E02R09R21E34
  20162304.090 7 105953765.06907  82561468.43907  20162306.093 7

  24323293.544 6 127819784.70906  99599852.42503  24323293.502 3

  24779326.362 6 130216209.54506
  24779338.958 7  97239406.98007  24779335.962 7  99776070.22507
  21733106.301 7 114208398.69907  88993655.34405  21733111.820 5  21733111.892 7

  21489870.363 8 112930080.51508  87997499.08508  21489874.955 8  21489875.684 7

  25155115.028 7 132191098.79407
  25155127.699 7  98714290.27307  25155124.381 7 101289411.30607
  21483978.152 8 112899077.62708  87973347.24708  21483982.929 8  21483983.428 7

  23438904.167 6 123172386.55906  95978561.50707  23438909.768 7  23438910.276 6

  22009282.569 7 117610925.96607  91475219.49807                  22009295.998 7

  23791427.688 6 125024949.31806  97422125.51004  23791427.932 4

  22674400.906 6 119154942.14106  92848119.75707  22674408.375 7  22674409.887 7

  21334756.575 7 113726257.39007

  25776815.675 6 135458100.97906
  25776823.787 7 101153996.17707  25776820.873 7 103792727.75207
  26161364.521 6 137478921.27806
  26161377.777 5 102662877.87505  26161375.512 6 105341021.56106
  28021489.742 5 147253961.57705
  28021495.091 5 109962426.95305  28021495.107 6 112830998.40206
  23977978.479 8 126005186.60508
  23977987.344 8  94094866.59908  23977984.385 8  96549502.82608
  21780572.357 5 116470637.91105  90588393.86106                  21780583.199 6

  21699783.673 7 114033264.54307  88857161.68906  21699786.810 6

  20590619.063 7 109875523.45807

  20801306.010 8 111194986.09808  86485032.45308                  20801316.758 8

  25553875.948 6 134286717.92006
  25553880.072 7 100279195.15207  25553877.905 7 102895145.88007
  23041974.356 7 123042969.77807  95700257.71307                  23041981.788 7

  22605358.202 4                                                  22605342.261 5

  25197802.316 7 132415520.54507
  25197812.737 7  98881867.02907  25197810.829 8 101461365.83808
 24  1 21 14 46 38.0000000  0 24G20G13E05G11G12E15G05G17R11G22G06R10
                                E03E27E08E30R20G19R06R05E02R09R21E34
  20162379.428 7 105954161.34807  82561777.24107  20162381.462 7

  24322816.239 6 127817277.70406  99597898.91403  24322816.442 3

  24779240.062 6 130215756.00506
  24779252.651 7  97239068.29207  24779249.640 7  99775722.71007
  21733254.596 7 114209178.28007  88994262.81505  21733260.171 5  21733260.237 7

  21489672.653 8 112929041.74708  87996689.66108  21489677.301 8  21489678.021 7

  25155120.407 7 132191126.56307
  25155132.954 7  98714311.02607  25155129.676 7 101289432.58407
  21483545.884 8 112896806.02808  87971577.17408  21483550.675 8  21483551.055 7

  23439246.558 6 123174185.76906  95979963.49107  23439252.129 7  23439252.597 6

  22009188.487 7 117610424.85007  91474829.73507                  22009202.098 7

  23792085.234 6 125028405.96706  97424818.99804  23792085.704 4

  22674701.310 6 119156521.25406  92849350.23807  22674708.850 7  22674710.347 7

  21335254.321 7 113728910.58107

  25776434.245 6 135456096.58906
  25776442.373 7 101152499.38707  25776439.459 7 103791191.91307
  26161058.644 6 137477313.83806
  26161071.787 5 102661677.52005  26161069.606 6 105339789.86206
  28021076.532 5 147251790.54205
  28021081.899 5 109960805.76405  28021081.951 6 112829334.89806
  23978139.380 8 126006031.99108
  23978148.186 8  94095497.88908  23978145.264 8  96550150.58608
  21780607.912 5 116470831.68605  90588544.57906                  21780619.560 6

  21700035.099 7 114034586.00207  88858191.39606  21700038.281 6

  20590046.894 7 109872468.60807

  20801532.309 8 111196195.24408  86485972.90508                  20801542.817 8

  25554407.435 6 134289510.81506
  25554411.621 6 100281280.91206  25554409.415 7 102897286.01107
  23042681.667 7 123046747.83207  95703196.20807                  23042689.343 7

  22605162.372 4                                                  22605145.433 5

  25197988.863 7 132416501.29407
  25197999.393 7  98882599.42007  25197997.440 8 101462117.33508
 24  1 21 14 46 39.0000000  0 24G20G13E05G11G12E15G05G17R11G22G06R10
                                E03E27E08E30R20G19R06R05E02R09R21E34
  20162455.037 7 105954558.14907  82562086.43707  20162456.930 7

  24322339.071 6 127814770.36206  99595945.15503  24322339.284 3

  24779153.791 6 130215302.73706
  24779166.427 7  97238729.82107  24779163.380 7  99775375.40607
  21733402.971 7 114209957.81007  88994870.24705  21733408.513 5  21733408.623 7

  21489475.124 8 112928003.50408  87995880.64508  21489479.740 8  21489480.349 7

  25155125.751 7 132191154.23507
  25155138.155 7  98714331.69007  25155134.891 7 101289453.79607
  21483113.641 8 112894534.78908  87969807.38408  21483118.488 8  21483118.840 7

  23439588.994 6 123175985.20906  95981365.65807  23439594.526 7  23439595.060 6

  22009094.683 7 117609924.41107  91474440.49507                  22009108.460 7

  23792742.915 6 125031862.60906  97427512.47604  23792743.506 4

  22675001.763 6 119158100.17406  92850580.56707  22675009.289 7  22675010.900 7

  21335752.005 7 113731564.09707

  25776052.816 7 135454092.16007
  25776060.939 7 101151002.57607  25776058.031 8 103789656.06308
  26160752.770 6 137475706.64806
  26160765.838 5 102660477.34005  26160763.748 6 105338558.37006
  28020663.411 5 147249619.20605
  28020668.807 5 109959184.28805  28020668.695 6 112827671.13206
  23978300.330 8 126006877.71108
  23978309.108 8  94096129.43008  23978306.186 8  96550798.60108
  21780644.224 5 116471025.25805  90588695.14106                  21780655.881 6

  21700286.578 7 114035907.75107  88859221.33006  21700289.801 6

  20589474.361 7 109869414.16707

  20801758.754 8 111197405.13308  86486913.93208                  20801769.224 8

  25554938.905 7 134292303.70207
  25554943.071 7 100283366.49707  25554940.893 8 102899426.02308
  23043389.136 7 123050525.70107  95706134.56507                  23043396.949 7

  22604967.959 4                                                  22604948.007 5

  25198175.401 7 132417481.86607
  25198185.995 7  98883331.66107  25198183.988 8 101462868.67508
 24  1 21 14 46 40.0000000  0 24G20G13E05G11G12E15G05G17R11G22G06R10
                                E03E27E08E30R20G19R06R05E02R09R21E34
  20162530.606 7 105954955.36107  82562395.97607  20162532.482 7

  24321861.998 6 127812262.71206  99593991.14903  24321862.064 3

  24779067.612 6 130214849.73406
  24779080.232 7  97238391.54507  24779077.179 7  99775028.30007
  21733551.349 7 114210737.29807  88995477.64505  21733556.850 5  21733556.960 7

  21489277.639 8 112926965.81808  87995072.06308  21489282.286 8  21489283.044 7

  25155131.054 7 132191181.83007
  25155143.410 7  98714352.31607  25155140.162 7 101289474.94707
  21482681.473 8 112892263.95008  87968037.90108  21482686.373 8  21482686.695 7

  23439931.536 6 123177784.90506  95982768.02607  23439936.976 7  23439937.675 6

  22009001.399 7 117609424.64107  91474051.79307                  22009015.033 7

  23793400.674 6 125035319.26906  97430205.96904  23793401.291 4

  22675302.172 6 119159678.94706  92851810.78207  22675309.702 7  22675311.267 7

  21336249.964 7 113734217.96307

  25775671.363 7 135452087.75007
  25775679.501 7 101149505.76007  25775676.615 8 103788120.20008
  26160447.050 6 137474099.72806
  26160459.968 5 102659277.36805  26160457.915 6 105337327.12206
  28020250.061 5 147247447.57405
  28020255.653 5 109957562.61305  28020255.397 6 112826007.17006
  23978461.312 8 126007723.79008
  23978470.090 8  94096761.25108  23978467.189 8  96551446.89608
  21780680.032 5 116471218.68105  90588845.55406                  21780692.099 6

  21700538.158 7 114037229.79907  88860251.49606  21700541.392 6

  20588901.878 7 109866360.13107

  20801985.300 8 111198615.78508  86487855.55108                  20801995.779 8

  25555470.341 7 134295096.57507
  25555474.543 7 100285452.09607  25555472.360 8 102901566.02808
  23044096.975 7 123054303.44007  95709072.80207                  23044104.467 7

                                                                  22604750.460 5

  25198361.901 7 132418462.26107
  25198372.545 7  98884063.78207  25198370.527 8 101463619.89408
 24  1 21 14 46 41.0000000  0 24G20G13E05G11G12E15G05G17R11G22G06R10
                                E03E27E08E30R20G19R06R05E02R09R21E34
  20162606.315 7 105955353.20207  82562706.02407  20162608.151 7

  24321384.743 6 127809754.99506  99592037.08703  24321384.852 3

  24778981.518 6 130214397.21006
  24778994.083 7  97238053.63107  24778991.055 7  99774681.58007
  21733699.823 7 114211516.95307  88996085.17305  21733705.209 5  21733705.277 7

  21489080.321 8 112925928.90308  87994264.08008  21489084.985 8  21489085.678 7

  25155136.313 7 132191209.57407
  25155148.665 7  98714373.03407  25155145.443 7 101289496.21407
  21482249.482 8 112889993.71908  87966268.89308  21482254.369 8  21482254.711 7

  23440274.101 6 123179585.04406  95984170.73507  23440279.507 7  23440280.229 6

  22008908.061 7 117608925.78607  91473663.80007                  22008921.589 7

  23794058.616 6 125038776.14606  97432899.63904  23794059.129 4

  22675602.505 6 119161257.77406  92853041.04107  22675610.128 7  22675611.599 7

  21336747.564 7 113736872.38407

  25775290.001 7 135450083.52207
  25775298.095 7 101148009.08907  25775295.211 7 103786584.48407
  26160141.317 6 137472493.32206
  26160154.267 5 102658077.79305  26160152.151 6 105336096.24206
  28019836.725 5 147245275.85305
  28019842.401 5 109955940.87505  28019842.121 7 112824343.12707
  23978622.388 8 126008570.43908
  23978631.183 8  94097393.48408  23978628.298 8  96552095.63108
  21780716.317 5 116471412.12405  90588996.05006                  21780728.328 6

  21700789.738 7 114038552.37207  88861282.07206  21700793.091 6

  20588329.675 6 109863306.71706

  20802211.810 8 111199827.41008  86488797.93508                  20802222.522 8

  25556001.853 6 134297889.55006
  25556005.916 6 100287537.67506  25556003.760 7 102903705.99707
  23044804.537 6 123058081.16006  95712011.03307                  23044811.850 7

                                                                  22604551.204 5

  25198548.489 7 132419442.69407
  25198559.123 7  98884795.92307  25198557.082 8 101464371.13808
 24  1 21 14 46 42.0000000  0 24G20G13E05G11G12E15G05G17R11G22G06R10
                                E03E27E08E30R20G19R06R05E02R09R21E34
  20162682.196 7 105955751.63707  82563016.53207  20162683.936 7

  24320907.385 6 127807247.13006  99590082.92803  24320907.578 3

  24778895.531 6 130213945.12206
  24778908.095 7  97237716.04707  24778905.034 7  99774335.18307
  21733848.073 7 114212296.74007  88996692.80605  21733853.573 5  21733853.662 7

  21488883.072 8 112924892.70008  87993456.65508  21488887.822 8  21488888.551 7

  25155141.611 7 132191237.41807
  25155153.954 7  98714393.82007  25155150.737 7 101289517.54207
  21481817.604 8 112887724.04708  87964500.32108  21481822.469 8  21481822.844 7

  23440616.798 6 123181385.60906  95985573.78007  23440622.123 7  23440622.778 6

  22008814.678 7 117608427.78207  91473276.46407                  22008828.412 7

  23794716.303 6 125042233.18506  97435593.43804  23794716.985 4

  22675902.937 6 119162836.59506  92854271.29007  22675910.558 7  22675912.109 7

  21337245.267 7 113739527.31407

  25774908.682 7 135448079.45507
  25774916.727 7 101146512.54207  25774913.871 7 103785048.90007
  26159835.676 6 137470887.38206
  26159848.581 5 102656878.53205  26159846.570 6 105334865.69506
  28019423.511 5 147243104.00305
  28019429.055 5 109954319.07405  28019428.809 7 112822678.99807
  23978783.575 8 126009417.61508
  23978792.393 8  94098026.11808  23978789.525 8  96552744.76308
  21780752.596 5 116471605.58205  90589146.49806                  21780764.311 6

  21701041.608 7 114039875.41907  88862313.01606  21701044.874 6

  20587757.699 7 109860253.93407

  20802438.669 8 111201039.96508  86489741.03008                  20802449.355 8

  25556533.488 6 134300682.88606
  25556537.534 7 100289623.64107  25556535.345 8 102905846.41308
  23045512.350 6 123061858.84306  95714949.24207                  23045519.137 7

                                                                  22604353.478 5

  25198735.130 7 132420423.11807
  25198745.664 7  98885528.05807  25198743.652 8 101465122.37408
 24  1 21 14 46 43.0000000  0 24G20G13E05G11G12E15G05G17R11G22G06R10
                                E03E27E08E30R20G19R06R05E02R09R21E34
  20162758.107 7 105956150.55907  82563327.40407  20162759.828 7

  24320430.178 6 127804738.85306  99588128.42803  24320430.282 3

  24778809.519 6 130213493.23306
  24778822.135 7  97237378.59207  24778819.061 7  99773988.93207
  21733996.470 7 114213076.38307  88997300.32605  21734001.924 5  21734002.026 7

  21488685.935 8 112923856.96508  87992649.59208  21488690.749 8  21488691.511 7

  25155146.848 7 132191265.08707
  25155159.224 7  98714414.50107  25155156.005 7 101289538.75507
  21481385.772 8 112885454.69308  87962731.99308  21481390.631 8  21481390.985 7

  23440959.514 6 123183186.35106  95986976.96207  23440964.774 7  23440965.496 6

  22008721.479 7 117607930.36007  91472889.57507                  22008735.226 7

  23795374.115 6 125045690.15406  97438287.17704  23795374.783 4

  22676203.290 6 119164415.18006  92855501.35907  22676210.944 7  22676212.417 7

  21337743.238 7 113742182.49207

  25774527.258 7 135446075.30107
  25774535.293 7 101145015.92107  25774532.464 7 103783513.23307
  26159530.134 6 137469281.62306
  26159542.962 5 102655679.44805  26159541.087 6 105333635.31406
  28019010.086 5 147240931.77905
  28019015.729 5 109952696.92705  28019015.439 7 112821014.58207
  23978944.806 8 126010265.05508
  23978953.652 8  94098658.94208  23978950.790 8  96553394.10008
  21780788.414 5 116471798.76105  90589296.76406                  21780800.372 6

  21701293.414 7 114041198.68307  88863344.12906  21701296.703 6

  20587185.858 7 109857201.47407

  20802665.549 8 111202253.19408  86490684.65308                  20802676.236 8

  25557065.060 6 134303476.19806
  25557069.055 7 100291709.44207  25557066.873 8 102907986.63508
  23046219.571 6 123065636.24006  95717887.21507                  23046226.213 7

                                                                  22604155.899 5

  25198921.637 7 132421403.28807
  25198932.187 7  98886260.00607  25198930.176 8 101465873.41708
 24  1 21 14 46 44.0000000  0 24G20G13E05G11G12E15G05G17R11G22G06R10
                                E03E27E08E30R20G19R06R05E02R09R21E34
  20162834.125 7 105956550.06107  82563638.75807  20162835.841 7

  24319952.875 6 127802230.41306  99586173.80003  24319952.954 3

  24778723.556 6 130213041.73906
  24778736.261 7  97237041.46207  24778733.157 7  99773642.99407
  21734144.872 7 114213856.11407  88997907.91205  21734150.297 5  21734150.360 7

  21488488.927 8 112922821.88908  87991843.04408  21488493.801 8  21488494.556 7

  25155152.141 7 132191292.82107
  25155164.522 7  98714435.20907  25155161.331 7 101289560.01107
  21480954.060 8 112883185.85908  87960964.07108  21480958.891 8  21480959.381 7

  23441302.197 6 123184987.43606  95988380.41007  23441307.488 7  23441308.094 6

  22008628.644 7 117607433.74607  91472503.31207                  22008642.122 7

  23796031.958 6 125049147.25506  97440981.02504  23796032.604 4

  22676503.723 6 119165993.72306  92856731.39407  22676511.325 7  22676512.777 7

  21338241.375 7 113744838.12207

  25774145.861 7 135444071.26707
  25774153.952 7 101143519.38707  25774151.114 8 103781977.66308
  26159224.634 6 137467676.26406
  26159237.463 5 102654480.61805  26159235.609 6 105332405.23406
  28018596.643 5 147238759.38705
  28018602.285 5 109951074.69905  28018602.092 7 112819350.01107
  23979106.072 8 126011112.97308
  23979114.988 8  94099292.12308  23979112.155 8  96554043.80008
  21780824.708 5 116471991.89605  90589446.98206                  21780836.469 6

  21701545.298 7 114042522.37207  88864375.57506  21701548.611 6

  20586613.934 7 109854149.53107

  20802892.731 8 111203467.28208  86491628.95308                  20802903.460 8

  25557596.614 7 134306269.62307
  25557600.664 7 100293795.42507  25557598.517 8 102910127.02808
  23046926.579 6 123069413.58006  95720825.16207                  23046933.491 7

                                                                  22603958.522 5

  25199108.085 7 132422383.39507
  25199118.729 7  98886991.91407  25199116.689 8 101466624.40708
 24  1 21 14 46 45.0000000  0 24G20G13E05G11G12E15G05G17R11G22G06R10
                                E03E27E08E30R20G19R06R05E02R09R21E34
  20162910.213 7 105956950.40607  82563950.77307  20162911.998 7

  24319475.427 6 127799722.05406  99584219.24803  24319475.617 3

  24778637.693 6 130212590.91006
  24778650.457 7  97236704.81107  24778647.373 7  99773297.56707
  21734293.325 7 114214636.17407  88998515.75605  21734298.737 5  21734298.785 7

  21488292.159 8 112921787.76808  87991037.23708  21488297.031 8  21488297.901 7

  25155157.488 7 132191320.86507
  25155169.798 7  98714456.16107  25155166.656 7 101289581.49707
  21480522.503 8 112880917.82008  87959196.76509  21480527.304 9  21480527.830 7

  23441645.052 6 123186789.18206  95989784.37507  23441650.327 7  23441650.817 6

  22008535.861 7 117606938.19807  91472117.88307                  22008549.412 7

  23796689.821 6 125052604.73506  97443675.18204  23796690.504 4

  22676804.086 6 119167572.49706  92857961.60907  22676811.751 7  22676813.210 7

  21338739.881 7 113747494.48207

  25773764.547 6 135442067.61506
  25773772.641 7 101142023.13607  25773769.865 7 103780442.38507
  26158919.369 6 137466071.57906
  26158932.101 5 102653282.33305  26158930.150 6 105331175.66906
  28018183.224 5 147236587.07905
  28018189.019 5 109949452.53005  28018188.777 7 112817685.52807
  23979267.501 8 126011961.63308
  23979276.466 8  94099925.86408  23979273.638 8  96554694.07508
  21780860.397 5 116472185.28305  90589597.38006                  21780872.457 6

  21701797.388 7 114043846.75907  88865407.56506  21701800.659 6

  20586041.947 6 109851098.41906

  20803120.012 8 111204682.50308  86492574.12508                  20803130.724 8

  25558128.308 6 134309063.47906
  25558132.351 7 100295881.53707  25558130.235 8 102912267.58308
  23047633.649 6 123073191.13306  95723763.24907                  23047640.807 7

                                                                  22603761.480 5

  25199294.565 7 132423363.71807
  25199305.264 7  98887723.96207  25199303.206 8 101467375.56808
 24  1 21 14 46 46.0000000  0 24G20G13E05G11G12E15G05G17R11G22G06R10
                                E03E27E08E30R20G19R06R05E02R09R21E34
  20162986.292 7 105957350.86907  82564262.91707  20162988.127 7

  24318998.101 6 127797213.22306  99582264.32003  24318998.213 3

  24778552.022 7 130212140.17107
  24778564.707 7  97236368.23407  24778561.607 7  99772952.20807
  21734441.789 7 114215416.04207  88999123.44805  21734447.127 5  21734447.261 7

  21488095.396 8 112920754.03108  87990231.73108  21488100.338 8  21488101.283 7

  25155162.814 7 132191348.65807
  25155175.080 7  98714476.92907  25155171.938 7 101289602.80507
  21480090.937 7 112878650.01107  87957429.63709  21480095.756 9  21480096.317 7

  23441987.911 6 123188591.00306  95991188.39507  23441993.185 7  23441993.784 6

  22008443.595 7 117606443.18507  91471732.86407                  22008456.758 7

  23797347.836 6 125056062.09506  97446369.23204  23797348.401 4

  22677104.320 6 119169150.93306  92859191.56207  22677112.119 7  22677113.420 7

  21339238.519 7 113750151.02307

  25773383.316 6 135440063.79806
  25773391.374 7 101140526.76107  25773388.550 7 103778906.97507
  26158614.021 6 137464467.01706
  26158626.775 6 102652084.11706  26158624.791 6 105329946.20706
  28017769.742 5 147234414.35105
  28017775.512 5 109947830.03005  28017775.322 7 112816020.68807
  23979429.003 8 126012810.49008
  23979437.982 8  94100559.75008  23979435.164 8  96555344.49408
  21780897.147 5 116472378.26605  90589747.50506                  21780908.466 6

  21702049.481 7 114045171.30007  88866439.67106  21702052.747 6

  20585470.282 7 109848047.59207

  20803347.426 8 111205898.28608  86493519.73408                  20803358.083 8

  25558660.106 7 134311857.12607
  25558664.073 7 100297967.82907  25558661.967 7 102914408.27307
  23048340.929 6 123076968.31206  95726701.08207                  23048348.208 7

                                                                  22603563.995 5

  25199481.004 7 132424343.69907
  25199491.748 7  98888455.77907  25199489.673 8 101468126.46708
 24  1 21 14 46 47.0000000  0 24G20G13E05G11G12E15G05G17R11G22G06R10
                                E03E27E08E30R20G19R06R05E02R09R21E34
  20163062.410 7 105957751.86407  82564575.46607  20163064.350 7

  24318520.675 6 127794704.10506  99580309.18103  24318520.805 3

  24778466.318 6 130211689.74106
  24778479.014 7  97236031.87807  24778475.880 7  99772607.07607
  21734590.152 7 114216195.88907  88999731.12605  21734595.523 5  21734595.578 7

  21487898.775 8 112919720.87208  87989426.67608  21487903.757 8  21487904.797 7

  25155168.143 7 132191376.42107
  25155180.327 7  98714497.66107  25155177.180 7 101289624.07907
  21479659.428 7 112876382.61807  87955662.83108  21479664.285 8  21479664.785 7

  23442330.756 6 123190393.08606  95992592.61907  23442336.082 7  23442336.758 6

  22008351.087 7 117605948.89107  91471348.40607                  22008364.305 7

  23798005.965 6 125059519.48006  97449063.30704  23798006.293 4

  22677404.652 6 119170729.24306  92860421.41607  22677412.465 7  22677413.676 7

  21339736.975 7 113752807.91707

  25773002.116 7 135438060.00107
  25773010.074 7 101139030.41407  25773007.221 7 103777371.59107
  26158308.796 6 137462862.76106
  26158321.517 5 102650886.14405  26158319.492 6 105328716.98206
  28017356.281 6 147232241.28506
  28017361.959 5 109946207.32205  28017361.862 7 112814355.65607
  23979590.597 8 126013659.71908
  23979599.584 8  94101193.91708  23979596.763 8  96555995.20608
  21780933.546 5 116472571.14805  90589897.52706                  21780944.241 6

  21702301.695 7 114046496.16407  88867472.03206  21702304.897 6

  20584898.543 6 109844997.21606

  20803574.879 8 111207114.84108  86494465.95308                  20803585.678 8

  25559191.983 6 134314650.98106
  25559195.791 7 100300053.92507  25559193.712 8 102916548.84308
  23049048.060 6 123080745.34106  95729638.76807                  23049055.743 7

                                                                  22603366.457 5

  25199667.437 7 132425323.53307
  25199678.209 7  98889187.48007  25199676.111 8 101468877.25708
 24  1 21 14 46 48.0000000  0 24G20G13E05G11G12E15G05G17R11G22G06R10
                                E03E27E08E30R20G19R06R05E02R09R21E34
  20163138.686 7 105958153.47307  82564888.48607  20163140.748 7

  24318043.101 6 127792194.86706  99578353.93503  24318043.352 3

  24778380.700 6 130211239.73706
  24778393.334 7  97235695.84107  24778390.248 7  99772262.27407
  21734738.443 7 114216975.87107  89000338.90805  21734743.927 5  21734744.064 7

  21487702.335 8 112918688.43608  87988622.18308  21487707.309 8  21487708.335 7

  25155173.435 7 132191404.27707
  25155185.554 7  98714518.46107  25155182.497 7 101289645.43307
  21479228.063 7 112874115.78907  87953896.46608  21479232.925 8  21479233.421 7

  23442673.715 6 123192195.60906  95993997.18907  23442679.069 7  23442679.739 6

  22008258.950 7 117605455.44607  91470964.60907                  22008271.962 7

  23798664.049 6 125062977.04906  97451757.52404  23798664.225 4

  22677704.948 6 119172307.55406  92861651.26907  22677712.815 7  22677713.890 7

  21340235.713 7 113755465.33907

  25772620.858 7 135436056.39907
  25772628.849 7 101137534.20807  25772625.946 7 103775836.35907
  26158003.588 6 137461258.96506
  26158016.432 5 102649688.49805  26158014.281 6 105327488.09306
  28016942.732 6 147230068.14806
  28016948.242 5 109944584.54105  28016948.321 7 112812690.52307
  23979752.276 8 126014509.48208
  23979761.296 8  94101828.48008  23979758.441 8  96556646.32208
  21780968.930 5 116472764.02605  90590047.55706                  21780980.446 6

  21702553.895 7 114047821.50507  88868504.76506  21702557.123 6

  20584327.044 6 109841947.45606

  20803802.575 8 111208332.33808  86495412.89808                  20803813.318 8

  25559723.601 7 134317444.88107
  25559727.630 7 100302140.15307  25559725.487 8 102918689.49908
  23049755.465 6 123084522.37306  95732576.45307                  23049762.889 7

                                                                  22603167.930 5

  25199853.867 7 132426303.37007
  25199864.708 7  98889919.18007  25199862.532 8 101469628.04508
 24  1 21 14 46 49.0000000  0 24G20G13E05G11G12E15G05G17R11G22G06R10
                                E03E27E08E30R20G19R06R05E02R09R21E34
  20163215.132 7 105958555.70407  82565201.97807  20163217.240 7

  24317565.684 6 127789685.51506  99576398.59803  24317565.760 3

  24778295.117 6 130210790.22506
  24778307.791 7  97235360.15707  24778304.724 7  99771917.82907
  21734886.694 7 114217756.01507  89000946.81405  21734892.376 5  21734892.555 7

  21487506.045 8 112917656.75708  87987818.28308  21487511.005 8  21487511.984 7

  25155178.790 7 132191432.27407
  25155190.913 7  98714539.37507  25155187.760 7 101289666.89107
  21478796.849 7 112871849.57407  87952130.58008  21478801.673 8  21478802.151 7

  23443016.814 6 123193998.56806  95995402.10006  23443022.136 6  23443022.903 6

  22008166.881 7 117604962.90207  91470581.51007                  22008179.807 7

  23799321.968 6 125066434.82706  97454451.89504  23799322.220 4

  22678005.217 7 119173885.92807  92862881.17407  22678013.178 7  22678014.121 7

  21340734.489 7 113758123.32507

  25772239.639 7 135434052.99907
  25772247.641 7 101136038.16707  25772244.710 7 103774301.28007
  26157698.468 6 137459655.64106
  26157711.359 5 102648491.21805  26157709.138 6 105326259.57006
  28016529.139 5 147227894.90305
  28016534.572 5 109942961.66305  28016534.717 7 112811025.32507
  23979914.094 8 126015359.80608
  23979923.102 8  94102463.45708  23979920.265 8  96557297.86508
  21781004.507 5 116472956.97305  90590197.61506                  21781016.675 6

  21702806.168 7 114049147.35607  88869537.89406  21702809.439 6

  20583755.665 6 109838898.31306

  20804030.541 8 111209550.83308  86496360.62608                  20804041.243 8

  25560255.377 7 134320239.15907
  25560259.453 6 100304226.69206  25560257.304 7 102920830.49007
  23050463.006 6 123088299.41206  95735514.16807                  23050470.348 7

                                                                  22602969.139 5

  25200040.336 7 132427283.23607
  25200051.159 7  98890650.89907  25200049.008 8 101470378.85508
 24  1 21 14 46 50.0000000  0 24G20G13E05G11G12E15G05G17R11G22G06R10
                                E03E27E08E30R20G19R06R05E02R09R21E34
  20163291.784 7 105958958.57707  82565515.99507  20163293.834 7

  24317088.314 6 127787176.02606  99574443.16103  24317088.307 3

  24778209.654 6 130210341.14806
  24778222.336 7  97235024.81307  24778219.271 7  99771573.74007
  21735035.146 7 114218536.28507  89001554.82305  21735040.856 5  21735040.971 7

  21487309.825 8 112916625.80708  87987014.95008  21487314.844 8  21487315.734 7

  25155184.144 7 132191460.36307
  25155196.247 7  98714560.35907  25155193.112 7 101289688.42007
  21478365.684 7 112869583.93107  87950365.14008  21478370.533 8  21478370.893 7

  23443360.058 6 123195801.95206  95996807.34206  23443365.298 6  23443366.124 6

  22008074.876 7 117604471.19807  91470199.07107                  22008087.888 7

  23799979.831 6 125069892.79106  97457146.41704  23799980.241 4

  22678305.450 7 119175464.30007  92864111.07607  22678313.546 7  22678314.618 7

  21341233.167 7 113760781.83207

  25771858.484 7 135432049.77307
  25771866.434 7 101134542.23907  25771863.500 8 103772766.33908
  26157393.394 6 137458052.80006
  26157406.251 5 102647294.28705  26157404.096 6 105325031.42806
  28016115.570 6 147225721.54406
  28016121.088 5 109941338.70305  28016121.131 7 112809360.03107
  23980075.984 8 126016210.65608
  23980085.029 8  94103098.83908  23980082.177 8  96557949.81408
  21781040.462 5 116473149.89405  90590347.67106                  21781052.788 6

  21703058.544 7 114050473.69107  88870571.40106  21703061.849 6

  20583184.414 6 109835849.75906

  20804258.530 8 111210770.27808  86497309.08508                  20804269.375 8

  25560787.293 6 134323033.52406
  25560791.349 7 100306313.24707  25560789.232 7 102922971.47707
  23051170.091 6 123092076.44206  95738451.86207                  23051177.731 7

                                                                  22602771.056 5

  25200226.822 7 132428263.10207
  25200237.592 7  98891382.62007  25200235.453 8 101471129.66408
 24  1 21 14 46 51.0000000  0 24G20G13E05G11G12E15G05G17R11G22G06R10
                                E03E27E08E30R20G19R06R05E02R09R21E34
  20163368.431 8 105959361.69608  82565830.19707  20163370.478 7

  24316610.599 6 127784666.21406  99572487.45903  24316610.693 3

  24778124.320 6 130209892.29606
  24778136.902 7  97234689.63907  24778133.858 7  99771229.82207
  21735183.701 7 114219316.46507  89002162.75905  21735189.314 5  21735189.360 7

  21487113.729 8 112915595.36408  87986212.01208  21487118.786 8  21487119.610 7

  25155189.432 7 132191488.33307
  25155201.571 7  98714581.25507  25155198.463 7 101289709.85407
  21477934.655 7 112867318.62107  87948599.96008  21477939.455 8  21477939.787 7

  23443703.478 6 123197605.53006  95998212.73406  23443708.490 6  23443709.328 6

  22007982.846 7 117603980.13707  91469817.13207                  22007996.030 7

  23800637.998 6 125073350.71606  97459840.90004  23800638.250 4

  22678605.816 7 119177042.47807  92865340.82707  22678613.873 7  22678614.902 7

  21341732.072 7 113763440.63907

  25771477.267 7 135430046.49007
  25771485.249 7 101133046.27007  25771482.338 8 103771231.34408
  26157088.498 6 137456450.18306
  26157101.378 5 102646097.52305  26157099.087 6 105323803.45206
  28015701.778 5 147223547.85305
  28015707.454 5 109939715.50705  28015707.492 7 112807694.47707
  23980237.974 8 126017061.82008
  23980246.999 8  94103734.44308  23980244.165 8  96558602.00608
  21781076.827 5 116473342.59705  90590497.56506                  21781089.151 6

  21703310.971 7 114051800.29807  88871605.11806  21703314.321 6

  20582612.939 6 109832801.54506

  20804486.748 8 111211990.44708  86498258.10208                  20804497.577 8

  25561319.070 6 134325828.04506
  25561323.239 7 100308399.96607  25561321.126 8 102925112.64308
  23051877.598 6 123095853.23206  95741389.35507                  23051884.848 7

                                                                  22602573.133 5

  25200413.294 7 132429242.73407
  25200424.029 7  98892114.17407  25200421.884 8 101471880.29408
 24  1 21 14 46 52.0000000  0 24G20G13E05G11G12E15G05G17R11G22G06R10
                                E03E27E08E30R20G19R06R05E02R09R21E34
  20163445.182 7 105959765.03707  82566144.55307  20163447.130 7

  24316132.881 6 127782155.86906  99570531.35203  24316132.905 3

  24778038.917 6 130209443.52006
  24778051.558 7  97234354.52207  24778048.486 7  99770885.96807
  21735332.056 7 114220096.40407  89002770.50805  21735337.731 5  21735337.724 7

  21486917.696 8 112914565.26808  87985409.34208  21486922.786 8  21486923.598 7

  25155194.722 7 132191516.03407
  25155206.879 7  98714601.94107  25155203.717 7 101289731.08307
  21477503.655 7 112865053.52107  87946834.94608  21477508.417 8  21477508.745 7

  23444046.778 6 123199409.15606  95999618.16306  23444051.683 6  23444052.523 6

  22007890.787 7 117603489.55507  91469435.56907                  22007904.221 7

  23801295.969 6 125076808.46706  97462535.25304  23801296.226 4

  22678906.060 6 119178620.29006  92866570.29007  22678914.134 7  22678915.100 7

  21342230.984 7 113766099.60507

  25771096.051 7 135428043.00207
  25771104.020 7 101131550.15007  25771101.099 7 103769696.19707
  26156783.501 6 137454847.65306
  26156796.394 5 102644900.84405  26156794.181 6 105322575.53606
  28015288.048 5 147221373.63905
  28015293.598 5 109938091.92605  28015293.737 7 112806028.53707
  23980400.016 8 126017913.14008
  23980408.976 8  94104370.16708  23980406.175 8  96559254.31608
  21781113.229 5 116473534.96305  90590647.17406                  21781124.995 6

  21703563.351 7 114053127.00607  88872638.91306  21703566.816 6

  20582041.640 6 109829753.56806

  20804715.087 8 111213211.16408  86499207.54908                  20804725.930 8

  25561850.927 6 134328622.32506
  25561855.092 6 100310486.58806  25561852.999 7 102927253.71507
  23052584.777 6 123099629.61306  95744326.53407                  23052592.296 7

                                                                  22602374.387 5

  25200599.713 7 132430222.00607
  25200610.365 7  98892845.45607  25200608.233 8 101472630.65208
 24  1 21 14 46 53.0000000  0 24G20G13E05G11G12E15G05G17R11G22G06R10
                                E03E27E08E30R20G19R06R05E02R09R21E34
  20163522.058 7 105960168.82307  82566459.23607  20163523.908 7

  24315655.144 6 127779645.12006  99568574.93603  24315655.121 3

  24777953.551 6 130208994.92606
  24777966.184 7  97234019.53007  24777963.114 7  99770542.23107
  21735480.421 7 114220876.18707  89003378.13705  21735486.118 5  21735486.073 7

  21486721.726 8 112913535.60508  87984607.01308  21486726.870 8  21486727.643 7

  25155199.952 7 132191543.54307
  25155212.095 7  98714622.49107  25155208.906 7 101289752.16607
  21477072.610 8 112862788.71008  87945070.15708  21477077.433 8  21477077.806 7

  23444389.835 6 123201212.92406  96001023.70006  23444394.915 6  23444395.777 6

  22007798.822 7 117602999.55807  91469054.47207                  22007812.439 7

  23801953.901 6 125080266.09106  97465229.51004  23801954.168 4

  22679206.177 6 119180197.81006  92867799.53007  22679214.350 7  22679215.318 7

  21342729.749 7 113768758.80807

  25770714.749 7 135426039.39007
  25770722.766 7 101130053.93907  25770719.803 7 103768160.94907
  26156478.476 6 137453245.28206
  26156491.375 5 102643704.26905  26156489.284 6 105321347.75406
  28014874.163 5 147219199.01505
  28014879.744 5 109936468.03305  28014879.925 7 112804362.28807
  23980562.090 8 126018764.69708
  23980570.998 8  94105006.06908  23980568.217 8  96559906.81008
  21781149.436 5 116473726.99905  90590796.53506                  21781160.547 6

  21703815.849 7 114054453.89707  88873672.85406  21703819.337 6

  20581470.225 6 109826705.91806

  20804943.753 8 111214432.49008  86500157.48008                  20804954.412 8

  25562382.813 6 134331416.65106
  25562386.868 7 100312573.11007  25562384.789 7 102929394.66907
  23053291.433 6 123103405.69506  95747263.49807                  23053299.281 7

                                                                  22602176.844 5

  25200786.105 7 132431200.98807
  25200796.674 7  98893576.50807  25200794.493 8 101473380.78108
 24  1 21 14 46 54.0000000  0 24G20G13E05G11G12E15G05G17R11G22G06R10
                                E03E27E08E30R20G19R06R05E02R09R21E34
  20163598.927 8 105960573.03208  82566774.23807  20163600.784 7

  24315177.325 6 127777134.07306  99566618.28503  24315177.274 3

  24777868.297 6 130208546.59606
  24777880.873 7  97233684.74507  24777877.829 7  99770198.71807
  21735628.698 7 114221655.95307  89003985.75105  21735634.495 5  21735634.474 7

  21486525.920 8 112912506.52008  87983805.12908  21486531.062 8  21486531.815 7

  25155205.212 7 132191571.00007
  25155217.325 7  98714643.01307  25155214.151 7 101289773.21707
  21476641.716 8 112860524.32108  87943305.69808  21476646.521 8  21476646.970 7

  23444733.320 6 123203016.94506  96002429.43706  23444738.197 6  23444738.978 6

  22007707.038 7 117602510.27107  91468673.91007                  22007720.907 7

  23802611.968 6 125083723.76206  97467923.80204  23802612.095 4

  22679506.299 7 119181775.21107  92869028.67907  22679514.539 7  22679515.583 7

  21343228.644 7 113771418.36507

  25770333.401 7 135424035.81007
  25770341.484 7 101128557.72307  25770338.538 8 103766625.70908
  26156173.607 6 137451643.23006
  26156186.521 5 102642507.92905  26156184.415 6 105320120.20606
  28014460.165 5 147217024.15205
  28014465.840 5 109934843.94705  28014466.007 7 112802695.82707
  23980724.237 8 126019616.63808
  23980733.112 8  94105642.26308  23980730.356 8  96560559.59308
  21781185.149 5 116473918.89805  90590945.79106                  21781196.507 6

  21704068.400 7 114055781.12307  88874707.05306  21704071.921 6

  20580899.470 6 109823658.74106

  20805172.384 8 111215654.59108  86501108.00008                  20805183.060 8

  25562914.652 6 134334211.30706
  25562918.605 6 100314660.17606  25562916.758 7 102931536.17607
  23053998.775 6 123107181.58606  95750200.31307                  23054006.271 7

                                                                  22601979.838 5

  25200972.351 7 132432179.81607
  25200982.923 7  98894307.45807  25200980.734 8 101474130.80008
 24  1 21 14 46 55.0000000  0 24G20G13E05G11G12E15G05G17R11G22G06R10
                                E03E27E08E30R20G19R06R05E02R09R21E34
  20163675.956 7 105960977.88707  82567089.74407  20163677.741 7

  24314699.499 6 127774622.95906  99564661.58303  24314699.419 3

  24777783.016 6 130208098.79706
  24777795.593 7  97233350.35907  24777792.645 7  99769855.60007
  21735777.162 7 114222435.91507  89004593.51905  21735782.935 5  21735782.835 7

  21486330.197 8 112911478.23608  87983003.87408  21486335.411 8  21486336.192 7

  25155210.432 7 132191598.63907
  25155222.610 7  98714663.65307  25155219.460 7 101289794.39807
  21476210.935 7 112858260.57207  87941541.73808  21476215.738 8  21476216.234 7

  23445076.643 6 123204821.47206  96003835.56806  23445081.573 6  23445082.374 6

  22007615.567 7 117602021.88407  91468294.05407                  22007629.623 7

  23803269.972 6 125087181.67606  97470618.27604  23803270.059 4

  22679806.336 6 119183352.69306  92870257.88607  22679814.745 7  22679815.813 7

  21343727.527 7 113774078.50307

  25769952.107 7 135422032.43407
  25769960.287 7 101127061.69807  25769957.329 7 103765090.65807
  26155868.886 6 137450041.71306
  26155881.898 5 102641311.98505  26155879.631 6 105318893.05406
  28014046.276 5 147214849.21605
  28014051.928 5 109933219.82805  28014052.039 7 112801029.32307
  23980886.467 8 126020469.17708
  23980895.358 8  94106278.90008  23980892.584 8  96561212.83508
  21781221.562 5 116474110.88505  90591095.11906                  21781232.540 6

  21704321.126 7 114057108.89107  88875741.67506  21704324.617 6

  20580328.637 7 109820612.23607

  20805401.264 8 111216877.67108  86502059.28608                  20805411.938 8

  25563446.509 7 134337006.10307
  25563450.423 7 100316747.15207  25563448.617 8 102933677.59608
  23054706.420 6 123110957.54806  95753137.17606                  23054713.390 6

                                                                  22601780.976 5

  25201158.581 6 132433158.71306
  25201169.264 7  98895038.45807  25201167.018 8 101474880.86408
 24  1 21 14 46 56.0000000  0 24G20G13E05G11G12E15G05G17R11G22G06R10
                                E03E27E08E30R20G19R06R05E02R09R21E34
  20163753.047 7 105961383.58707  82567405.90807  20163754.863 7

  24314221.554 6 127772112.04406  99562705.02503  24314221.595 3

  24777697.900 6 130207651.75906
  24777710.466 7  97233016.53407  24777707.565 7  99769513.07307
  21735925.664 7 114223216.32107  89005201.63305  21735931.438 5  21735931.374 7

  21486134.699 8 112910450.98008  87982203.41808  21486139.952 8  21486140.728 7

  25155215.780 7 132191626.68407
  25155227.918 7  98714684.60307  25155224.785 7 101289815.89307
  21475780.351 7 112855997.71407  87939778.47208  21475785.121 8  21475785.627 7

  23445420.194 6 123206626.71706  96005242.26106  23445425.088 6  23445426.016 6

  22007524.415 7 117601534.69707  91467915.13607                  22007538.427 7

  23803928.128 6 125090640.09206  97473313.14304  23803928.152 4

  22680106.615 7 119184930.49807  92871487.34807  22680115.015 7  22680116.210 7

  21344226.612 7 113776739.47607

  25769570.974 7 135420029.56307
  25769579.155 7 101125566.02007  25769576.152 7 103763555.96907
  26155564.268 6 137448440.94706
  26155577.132 5 102640116.60905  26155574.884 6 105317666.49806
  28013632.453 5 147212674.45905
  28013638.025 5 109931595.82705  28013638.180 7 112799362.97807
  23981048.875 8 126021322.55108
  23981057.786 8  94106916.16008  23981054.954 8  96561866.72408
  21781257.086 5 116474303.18305  90591244.67806                  21781268.538 6

  21704573.830 7 114058437.45707  88876776.92206  21704577.478 6

  20579757.806 7 109817566.64907

  20805630.260 8 111218102.00308  86503011.54308                  20805640.977 8

  25563978.447 7 134339801.42707
  25563982.398 7 100318834.63607  25563980.552 7 102935819.53207
  23055413.573 6 123114733.81806  95756074.28306                  23055420.641 6

                                                                  22601582.749 5

  25201344.929 7 132434137.92207
  25201355.609 7  98895769.68007  25201353.345 8 101475631.17108
 24  1 21 14 46 57.0000000  0 24G20G13E05G11G12E15G05G17R11G22G06R10
                                E03E27E08E30R20G19R06R05E02R09R21E34
  20163830.264 7 105961789.93107  82567722.54407  20163832.132 7

  24313743.506 6 127769600.92206  99560748.31403  24313743.757 3

  24777612.873 6 130207205.12206
  24777625.459 7  97232683.01707  24777622.586 7  99769170.85207
  21736074.162 7 114223996.82107  89005809.81605  21736079.945 5  21736079.856 7

  21485939.372 8 112909424.41208  87981403.50008  21485944.627 8  21485945.420 7

  25155221.147 7 132191654.78907
  25155233.241 7  98714705.58707  25155230.119 7 101289837.42907
  21475349.904 7 112853735.36607  87938015.60308  21475354.602 8  21475355.011 7

  23445763.711 6 123208432.36106  96006649.26206  23445768.683 6  23445769.570 6

  22007433.390 7 117601048.30507  91467536.83707                  22007447.112 7

  23804586.298 6 125094098.64306  97476008.11504  23804586.276 4

  22680406.759 6 119186508.27106  92872716.78207  22680415.280 7  22680416.406 7

  21344725.823 7 113779400.92507

  25769189.805 7 135418026.82407
  25769198.057 7 101124070.44807  25769195.082 7 103762021.37807
  26155259.722 6 137446840.59706
  26155272.619 5 102638921.56505  26155270.343 6 105316440.27506
  28013218.794 5 147210499.56805
  28013224.179 5 109929971.73505  28013224.283 7 112797696.49907
  23981211.405 8 126022176.41008
  23981220.276 8  94107553.78008  23981217.434 8  96562520.97908
  21781293.389 5 116474495.47305  90591394.22306                  21781304.370 6

  21704826.684 7 114059766.45907  88877812.50506  21704830.407 6

  20579187.514 6 109814521.58406

  20805859.632 8 111219327.21808  86503964.49108                  20805870.230 8

  25564510.507 5 134342596.64405
  25564514.547 5 100320922.76905  25564512.653 6 102937962.14706
  23056120.809 7 123118510.00307  95759011.29707                  23056127.671 7

                                                                  22601384.057 4

  25201531.299 7 132435117.09407
  25201541.955 7  98896500.87107  25201539.687 8 101476381.43808
 24  1 21 14 46 58.0000000  0 24G20G13E05G11G12E15G05G17R11G22G06R10
                                E03E27E08E30R20G19R06R05E02R09R21E34
  20163907.664 7 105962196.56507  82568039.42207  20163909.447 7

  24313265.575 6 127767089.42706  99558791.32403  24313265.763 3

  24777527.949 6 130206758.65006
  24777540.502 7  97232349.61507  24777537.621 7  99768828.75407
  21736222.721 7 114224777.16007  89006417.87505  21736228.425 5  21736228.559 7

  21485744.146 8 112908398.29108  87980603.92708  21485749.387 8  21485750.198 7

  25155226.435 7 132191682.70907
  25155238.566 7  98714726.44707  25155235.416 7 101289858.82507
  21474919.547 7 112851473.31207  87936252.96108  21474924.142 8  21474924.582 7

  23446107.343 6 123210238.10706  96008056.34306  23446112.300 6  23446113.310 6

  22007342.444 7 117600562.49507  91467158.95507                  22007356.152 7

  23805244.495 6 125097557.08906  97478703.00304  23805244.392 4

  22680706.923 7 119188085.77707  92873946.01007  22680715.491 7  22680716.558 7

  21345225.144 7 113782062.59007

  25768808.638 7 135416023.97907
  25768816.962 7 101122574.79707  25768814.001 7 103760486.71807
  26154955.345 6 137445240.44006
  26154968.007 5 102637726.61005  26154965.823 6 105315214.16606
  28012804.961 5 147208324.28505
  28012810.269 5 109928347.31205  28012810.360 7 112796029.71307
  23981373.979 8 126023030.52208
  23981382.813 8  94108191.59208  23981379.963 8  96563175.42408
  21781329.444 5 116474687.43705  90591543.54106                  21781340.261 6

  21705079.573 7 114061095.66307  88878848.24606  21705083.380 6

  20578617.068 6 109811476.86306

  20806088.915 8 111220553.09308  86504917.94808                  20806099.515 8

  25565042.446 6 134345392.24906
  25565046.596 7 100323010.43407  25565044.648 8 102940104.25108
  23056827.791 7 123122285.88107  95761948.10707                  23056835.275 7

                                                                  22601185.986 5

  25201717.602 7 132436095.96507
  25201728.260 7  98897231.86407  25201725.967 8 101477131.49408
 24  1 21 14 46 59.0000000  0 24G20G13E05G11G12E15G05G17R11G22G06R10
                                E03E27E08E30R20G19R06R05E02R09R21E34
  20163985.205 7 105962603.89107  82568356.82207  20163986.882 7

  24312787.531 6 127764577.78906  99556834.20203  24312787.724 3

  24777443.070 6 130206312.64106
  24777455.644 7  97232016.57207  24777452.752 7  99768487.01307
  21736371.333 7 114225557.64907  89007026.05605  21736376.941 5  21736377.026 7

  21485549.008 8 112907372.90808  87979804.93208  21485554.290 8  21485555.014 7

  25155231.734 7 132191710.74207
  25155243.893 7  98714747.38407  25155240.781 7 101289880.31707
  21474489.238 7 112849211.85607  87934490.78808  21474493.793 8  21474494.290 7

  23446451.162 6 123212044.32506  96009463.79406  23446456.007 6  23446457.023 6

  22007251.659 7 117600077.55407  91466781.77807                  22007265.408 7

  23805902.579 6 125101015.73106  97481398.04804  23805902.552 4

  22681007.310 6 119189663.30006  92875175.25207  22681015.716 7  22681016.734 7

  21345724.569 7 113784724.78107

  25768427.553 7 135414021.32107
  25768435.866 7 101121079.30307  25768432.926 7 103758952.21507
  26154651.013 6 137443640.73806
  26154663.623 5 102636532.05305  26154661.424 6 105313988.43406
  28012391.056 6 147206148.83706
  28012396.373 5 109926722.82405  28012396.422 7 112794362.84907
  23981536.671 8 126023885.17308
  23981545.464 8  94108829.80408  23981542.592 8  96563830.28808
  21781364.786 5 116474879.44705  90591692.89506                  21781376.484 6

  21705332.595 7 114062425.35007  88879884.36506  21705336.447 6

  20578046.862 6 109808432.78606

  20806318.648 8 111221779.92608  86505872.15308                  20806328.999 8

  25565574.374 7 134348187.92907
  25565578.554 7 100325098.11707  25565576.553 8 102942246.39208
  23057535.041 7 123126061.77207  95764884.91407                  23057542.301 7

  22601097.573 3                                                  22600988.112 4

  25201903.937 6 132437074.86506
  25201914.509 7  98897962.85707  25201912.241 8 101477881.55808
 24  1 21 14 47  0.0000000  0 24G20G13E05G11G12E15G05G17R11G22G06R10
                                E03E27E08E30R20G19R06R05E02R09R21E34
  20164062.901 7 105963011.94507  82568674.80207  20164064.473 7

  24312309.482 6 127762066.18206  99554877.11003  24312309.721 3

  24777358.334 6 130205867.21906
  24777370.849 7  97231683.96307  24777367.971 7  99768145.72607
  21736519.956 7 114226338.40807  89007634.44405  21736525.502 5  21736525.691 7

  21485354.059 8 112906348.39408  87979006.61408  21485359.359 8  21485359.984 7

  25155237.088 7 132191739.02607
  25155249.209 7  98714768.51307  25155246.161 7 101289901.99207
  21474059.002 7 112846951.11907  87932729.17308  21474063.582 8  21474064.055 7

  23446794.966 6 123213851.10406  96010871.67806  23446799.826 6  23446800.781 6

  22007161.170 7 117599593.62007  91466405.35707                  22007174.766 7

  23806560.976 6 125104474.68706  97484093.34004  23806560.748 4

  22681307.593 6 119191241.00106  92876404.63307  22681315.972 7  22681317.054 7

  21346224.169 7 113787387.62807

  25768046.516 7 135412018.98007
  25768054.815 7 101119584.04407  25768051.921 8 103757417.94408
  26154346.638 6 137442041.65806
  26154359.302 5 102635337.92105  26154357.080 6 105312763.16306
  28011977.175 6 147203973.46006
  28011982.479 5 109925098.37105  28011982.454 7 112792696.00407
  23981699.444 8 126024740.50108
  23981708.260 8  94109468.52408  23981705.335 8  96564485.66808
  21781400.354 5 116475071.59405  90591842.34906                  21781412.272 6

  21705585.719 7 114063755.66507  88880920.97206  21705589.617 6

  20577476.624 7 109805389.44007

  20806548.317 8 111223007.83608  86506827.19408                  20806558.744 8

  25566106.491 6 134350983.94706
  25566110.558 7 100327185.99807  25566108.514 7 102944388.72207
  23058242.273 7 123129837.80407  95767821.82507                  23058249.346 7

  22600894.928 4                                                  22600792.152 5

  25202090.247 6 132438053.90406
  25202100.784 7  98898693.95907  25202098.545 8 101478631.73108
 24  1 21 14 47  1.0000000  0 24G20G13E05G11G12E15G05G17R11G22G06R10
                                E03E27E08E30R20G19R06R05E02R09R21E34
  20164140.609 8 105963420.29008  82568993.01107  20164142.114 7

  24311831.579 6 127759554.11606  99552919.66003  24311831.687 3

  24777273.497 6 130205421.94806
  24777286.068 7  97231351.45907  24777283.245 7  99767804.55607
  21736668.602 7 114227119.00607  89008242.70405  21736674.031 5  21736674.226 7

  21485159.190 8 112905324.31608  87978208.63408  21485164.508 8  21485165.066 7

  25155242.338 7 132191767.11207
  25155254.511 7  98714789.49507  25155251.506 7 101289923.51307
  21473628.888 7 112844690.65407  87930967.77208  21473633.435 8  21473633.893 7

  23447138.817 6 123215657.99806  96012279.65706  23447143.662 6  23447144.432 6

  22007070.562 7 117599110.23507  91466029.42107                  22007084.401 7

  23807219.233 6 125107933.53506  97486788.55304  23807218.886 4

  22681607.911 6 119192818.40206  92877633.77807  22681616.161 7  22681617.240 7

  21346723.831 7 113790050.68607

  25767665.449 7 135410016.52707
  25767673.740 7 101118088.68807  25767670.842 8 103755883.58308
  26154042.235 6 137440442.72406
  26154055.042 5 102634143.93305  26154052.932 6 105311538.00506
  28011563.181 6 147201797.65206
  28011568.512 5 109923473.56605  28011568.368 7 112791028.83307
  23981862.248 8 126025596.06008
  23981871.080 8  94110107.41508  23981868.126 8  96565141.22508
  21781435.899 5 116475263.45105  90591991.58606                  21781448.045 6

  21705838.959 7 114065086.16907  88881957.72606  21705842.827 6

  20576906.282 6 109802346.40306

  20806778.205 8 111224236.35808  86507782.70708                  20806788.496 8

  25566638.631 6 134353779.91106
  25566642.509 6 100329273.84606  25566640.534 7 102946531.07207
  23058949.568 7 123133613.51707  95770758.51107                  23058956.307 7

                                                                  22600593.939 5

  25202276.452 6 132439032.63906
  25202287.014 7  98899424.84107  25202284.796 8 101479381.67808
 24  1 21 14 47  2.0000000  0 24G20G13E05G11G12E15G05G17R11G22G06R10
                                E03E27E08E30R20G19R06R05E02R09R21E34
  20164218.367 7 105963829.00107  82569311.50607  20164219.831 7

  24311353.389 6 127757041.76606  99550961.99603  24311353.572 3

  24777188.775 6 130204976.92606
  24777201.359 7  97231019.14707  24777198.538 7  99767463.57107
  21736817.211 7 114227899.53607  89008850.91305  21736822.556 5  21736822.815 7

  21484964.493 8 112904300.76608  87977411.06808  21484969.760 8  21484970.290 7

  25155247.564 7 132191795.09907
  25155259.826 7  98714810.40207  25155256.819 7 101289944.97107
  21473198.778 7 112842430.56807  87929206.66708  21473203.354 8  21473203.952 7

  23447482.670 6 123217465.10806  96013687.80306  23447487.548 6  23447488.314 6

  22006980.200 7 117598627.48807  91465653.95107                  22006994.133 7

  23807877.493 6 125111392.35506  97489483.74404  23807877.002 4

  22681908.074 6 119194395.62706  92878862.78607  22681916.323 7  22681917.367 7

  21347223.478 7 113792714.04707

  25767284.462 7 135408014.03207
  25767292.696 7 101116593.30607  25767289.767 7 103754349.19707
  26153737.900 6 137438844.04506
  26153750.816 5 102632950.11505  26153748.641 6 105310313.04906
  28011149.079 6 147199621.52806
  28011154.417 5 109921848.58505  28011154.233 7 112789361.42307
  23982025.141 8 126026451.94608
  23982033.954 8  94110746.55308  23982031.005 8  96565797.04108
  21781471.966 5 116475455.13705  90592140.65806                  21781483.921 6

  21706092.173 7 114066416.95207  88882994.70106  21706096.086 6

  20576336.127 7 109799303.78007

  20807008.135 8 111225465.57608  86508738.77008                  20807018.423 8

  25567170.688 6 134356576.00506
  25567174.643 6 100331361.93006  25567172.604 7 102948673.60707
  23059656.489 7 123137389.01707  95773695.01807                  23059663.400 7

                                                                  22600396.736 5

  25202462.613 6 132440011.18206
  25202473.236 7  98900155.56907  25202470.999 8 101480131.47508
 24  1 21 14 47  3.0000000  0 24G20G13E05G11G12E15G05G17R11G22G06R10
                                E03E27E08E30R20G19R06R05E02R09R21E34
  20164296.241 7 105964238.22707  82569630.40307  20164297.646 7

  24310875.217 6 127754529.08506  99549004.06103  24310875.448 3

  24777104.191 6 130204532.19806
  24777116.691 7  97230687.05507  24777113.872 7  99767122.82007
  21736965.857 7 114228680.03207  89009459.09705  21736971.072 5  21736971.361 7

  21484769.792 8 112903277.78708  87976613.94408  21484775.119 8  21484775.579 7

  25155252.872 7 132191823.03107
  25155265.123 7  98714831.26907  25155262.168 7 101289966.38007
  21472768.677 7 112840170.88307  87927445.87308  21472773.354 8  21472773.870 7

  23447826.589 6 123219272.50706  96015096.17306  23447831.501 6  23447832.019 6

  22006889.895 7 117598145.46907  91465279.03407                  22006903.889 7

  23808535.738 6 125114851.24006  97492178.98204  23808535.148 4

  22682208.206 6 119195972.70506  92880091.68107  22682216.458 7  22682217.623 7

  21347723.031 7 113795377.76707

  25766903.435 7 135406011.56007
  25766911.672 7 101115097.93007  25766908.708 8 103752814.80508
  26153433.710 6 137437245.68406
  26153446.619 5 102631756.52505  26153444.475 6 105309088.31506
  28010734.980 6 147197445.14106
  28010740.220 5 109920223.33905  28010740.071 7 112787693.79107
  23982188.075 8 126027308.21008
  23982196.929 8  94111385.96808  23982193.936 8  96566453.13408
  21781507.557 5 116475646.65905  90592289.61506                  21781519.757 6

  21706345.561 7 114067748.06707  88884031.93006  21706349.399 6

  20575765.978 6 109796261.57306

  20807238.259 8 111226695.56708  86509695.42808                  20807248.579 8

  25567702.777 7 134359372.24407
  25567706.674 7 100333450.08207  25567704.681 7 102950816.21507
  23060363.695 7 123141164.35307  95776631.39507                  23060370.465 7

                                                                  22600199.372 5

  25202648.774 6 132440989.56006
  25202659.436 7  98900886.18507  25202657.171 8 101480881.14508
 24  1 21 14 47  4.0000000  0 24G20G13E05G11G12E15G05G17R11G22G06R10
                                E03E27E08E30R20G19R06R05E02R09R21E34
  20164374.192 7 105964647.91307  82569949.64607  20164375.546 7

  24310397.179 6 127752016.05006  99547045.85603  24310397.177 3

  24777019.587 6 130204087.64506
  24777032.087 7  97230355.09507  24777029.220 7  99766782.19507
  21737114.389 7 114229460.39607  89010067.17905  21737119.570 5  21737119.965 7

  21484575.164 8 112902255.27108  87975817.18408  21484580.568 8  21484580.964 7

  25155258.168 7 132191850.79907
  25155270.363 7  98714852.00907  25155267.412 7 101289987.65907
  21472338.645 7 112837911.51507  87925685.32808  21472343.421 8  21472343.902 7

  23448170.620 6 123221080.01506  96016504.62606  23448175.467 6  23448175.761 6

  22006799.871 7 117597664.05107  91464904.59107                  22006813.589 7

  23809193.754 6 125118309.99506  97494874.11704  23809193.286 4

  22682508.235 6 119197549.52606  92881320.37307  22682516.549 7  22682517.562 7

  21348222.744 7 113798041.74107

  25766522.354 7 135404008.97407
  25766530.595 7 101113602.48007  25766527.655 7 103751280.34607
  26153129.481 6 137435647.50606
  26153142.525 5 102630563.07005  26153140.363 6 105307863.74106
  28010320.757 6 147195268.34506
  28010325.929 5 109918597.80605  28010325.870 7 112786025.87507
  23982351.081 8 126028164.73908
  23982359.904 8  94112025.58108  23982356.917 8  96567109.43608
  21781543.040 5 116475837.92405  90592438.36606                  21781555.170 6

  21706598.945 7 114069079.39707  88885069.32706  21706602.761 6

  20575195.645 6 109793219.68606

  20807468.546 8 111227926.23508  86510652.62508                  20807478.662 8

  25568234.775 7 134362168.38907
  25568238.730 8 100335538.10008  25568236.758 8 102952958.72008
  23061070.669 7 123144939.39307  95779567.54307                  23061077.388 7

                                                                  22600002.531 5

  25202834.864 6 132441967.67406
  25202845.582 7  98901616.60307  25202843.283 8 101481630.61208
 24  1 21 14 47  5.0000000  0 24G20G13E05G11G12E15G05G17R11G22G06R10
                                E03E27E08E30R20G19R06R05E02R09R21E34
  20164452.237 8 105965057.80908  82570269.08607  20164453.509 7

  24309918.985 6 127749502.64606  99545087.37803  24309918.816 3

  24776935.046 6 130203643.30106
  24776947.529 7  97230023.28507  24776944.626 7  99766441.72107
  21737262.788 7 114230240.66607  89010675.18605  21737268.046 5  21737268.486 7

  21484380.620 7 112901233.24507  87975020.80308  21484386.101 8  21484386.578 7

  25155263.408 7 132191878.43607
  25155275.571 7  98714872.65307  25155272.677 7 101290008.83807
  21471908.696 7 112835652.48507  87923925.04808  21471913.546 8  21471914.121 7

  23448514.706 6 123222887.73806  96017913.24806  23448519.482 6  23448519.821 6

  22006709.835 7 117597183.25607  91464530.64907                  22006723.691 7

  23809852.123 5 125121768.72205  97497569.23304  23809851.460 4

  22682808.221 6 119199126.13006  92882548.90107  22682816.595 7  22682817.533 7

  21348722.585 7 113800705.97707

  25766141.320 7 135402006.35307
  25766149.577 7 101112106.99807  25766146.610 7 103749745.85007
  26152825.290 6 137434049.55106
  26152838.410 5 102629369.81605  26152836.192 6 105306639.34706
  28009906.525 6 147193091.22206
  28009911.571 5 109916972.04505  28009911.550 7 112784357.69007
  23982514.123 8 126029021.55808
  23982522.975 8  94112665.41408  23982519.965 8  96567765.95908
  21781579.501 5 116476028.96305  90592586.96106                  21781590.657 6

  21706852.376 7 114070410.96707  88886106.91506  21706856.150 6

  20574625.670 7 109790178.17507

  20807698.785 8 111229157.62808  86511610.37408                  20807709.002 8

  25568766.814 7 134364964.36707
  25568770.764 7 100337625.92707  25568768.798 8 102955101.02808
  23061777.708 7 123148714.15407  95782503.48407                  23061784.259 7

                                                                  22599804.644 5

  25203020.995 6 132442945.55806
  25203031.701 7  98902346.84007  25203029.362 8 101482379.90608
 24  1 21 14 47  6.0000000  0 24G20G13E05G11G12E15G05G17R11G22G06R10
                                E03E27E08E30R20G19R06R05E02R09R21E34
  20164530.239 7 105965468.15907  82570588.86407  20164531.548 7

  24309440.804 6 127746989.02806  99543128.72203  24309440.473 3

  24776850.492 6 130203199.33806
  24776863.106 7  97229691.75207  24776860.150 7  99766101.54007
  21737411.140 7 114231020.99407  89011283.23705  21737416.544 5  21737417.052 7

  21484186.239 7 112900211.88507  87974224.94208  21484191.764 8  21484192.201 7

  25155268.678 7 132191906.10707
  25155280.831 7  98714893.32207  25155277.939 7 101290030.04507
  21471478.864 7 112833393.95107  87922165.15108  21471483.769 8  21471484.347 7

  23448858.834 6 123224695.78706  96019322.12406  23448863.555 6  23448863.981 6

  22006620.359 7 117596703.24307  91464157.30607                  22006633.599 7

  23810510.346 5 125125227.56305  97500264.44104  23810509.665 4

  22683108.229 6 119200702.67606  92883777.38007  22683116.632 7  22683117.470 7

  21349222.640 7 113803370.68707

  25765760.268 6 135400003.82906
  25765768.545 7 101110611.57607  25765765.555 7 103748211.42507
  26152521.386 6 137432451.99106
  26152534.404 5 102628176.83105  26152532.036 6 105305415.23506
  28009492.252 6 147190913.88706
  28009497.141 5 109915346.12405  28009497.223 7 112782689.34907
  23982677.280 8 126029878.84008
  23982686.147 8  94113305.59108  23982683.075 8  96568422.83708
  21781615.894 5 116476219.92805  90592735.49306                  21781626.276 6

  21707105.873 7 114071742.96107  88887144.82906  21707109.620 6

  20574055.768 6 109787137.20506

  20807929.259 8 111230389.90208  86512568.81508                  20807939.566 8

  25569298.869 7 134367760.46007
  25569302.871 7 100339713.86507  25569300.873 8 102957243.43208
  23062484.830 7 123152488.88507  95785439.37007                  23062491.229 7

                                                                  22599606.631 5

  25203207.205 6 132443923.37506
  25203217.776 7  98903077.02907  25203215.449 8 101483129.14208
 24  1 21 14 47  7.0000000  0 24G20G13E05G11G12E15G05G17R11G22G06R10
                                E03E27E08E30R20G19R06R05E02R09R21E34
  20164608.359 6 105965879.44206  82570909.34007  20164609.765 7

  24308962.423 6 127744475.33506  99541170.00903  24308962.050 3

  24776766.096 6 130202755.84006
  24776778.706 7  97229360.56907  24776775.755 7  99765761.71907
  21737559.646 7 114231801.49907  89011891.42705  21737565.074 5  21737565.747 7

  21483991.994 7 112899191.29407  87973429.68008  21483997.575 8  21483997.963 7

  25155274.046 7 132191933.91507
  25155286.136 7  98714914.09807  25155283.252 7 101290051.36307
  21471049.147 7 112831136.03107  87920405.73308  21471054.118 8  21471054.758 7

  23449203.051 6 123226504.31306  96020731.37106  23449207.723 6  23449208.174 6

  22006530.585 7 117596224.10907  91463784.65307                  22006544.042 7

  23811168.641 5 125128686.62505  97502959.81504  23811167.883 4

  22683408.205 6 119202279.28606  92885005.91007  22683416.673 7  22683417.284 7

  21349722.617 7 113806035.94907

  25765379.277 6 135398001.51706
  25765387.505 7 101109116.34307  25765384.539 7 103746677.18807
  26152217.562 6 137430854.93406
  26152230.406 5 102626984.22405  26152228.061 6 105304191.51006
  28009077.816 6 147188736.48706
  28009082.772 5 109913720.17605  28009082.875 6 112781020.97106
  23982840.511 8 126030736.69408
  23982849.398 8  94113946.19908  23982846.300 8  96569080.15808
  21781651.867 5 116476410.94405  90592884.07606                  21781662.064 6

  21707359.384 7 114073075.46607  88888183.14306  21707363.192 6

  20573485.745 6 109784096.89706

  20808160.026 8 111231623.17008  86513528.01908                  20808170.196 8

  25569831.027 6 134370556.83106
  25569835.040 5 100341801.63205  25569832.964 6 102959385.74606
  23063191.813 7 123156263.60207  95788375.28407                  23063198.223 7

                                                                  22599407.962 5

  25203393.322 6 132444901.23206
  25203403.853 7  98903807.24907  25203401.512 8 101483878.41408
 24  1 21 14 47  8.0000000  0 24G20G13E05G11G12E15G05G17R11G22G06R10
                                E03E27E08E30R20G19R06R05E02R09R21E34
  20164686.759 8 105966291.41008  82571230.32406  20164688.104 6

  24308484.182 6 127741961.59806  99539211.25503  24308483.738 3

  24776681.851 6 130202312.86806
  24776694.464 7  97229029.77207  24776691.475 7  99765422.29107
  21737708.172 7 114232582.19807  89012499.76805  21737713.643 5  21737714.316 7

  21483798.017 7 112898171.49507  87972635.03608  21483803.534 8  21483803.892 7

  25155279.360 7 132191961.90307
  25155291.427 7  98714935.00307  25155288.574 7 101290072.80907
  21470619.577 7 112828878.74307  87918646.80908  21470624.583 8  21470625.171 7

  23449547.250 6 123228313.35006  96022141.01806  23449551.980 6  23449552.575 6

  22006441.274 7 117595745.92307  91463412.71707                  22006454.752 7

  23811827.015 5 125132145.93705  97505655.38804  23811826.142 4

  22683708.077 6 119203855.96506  92886234.49507  22683716.724 7  22683717.178 7

  21350222.923 7 113808701.80807

  25764998.183 6 135395999.47306
  25765006.567 7 101107621.28807  25765003.571 7 103745143.13807
  26151913.869 6 137429258.38506
  26151926.725 5 102625792.00205  26151924.312 6 105302968.20206
  28008663.492 5 147186559.03305
  28008668.435 5 109912094.14405  28008668.498 6 112779352.54206
  23983003.827 8 126031595.15008
  23983012.782 8  94114587.24808  23983009.660 8  96569737.93308
  21781687.056 5 116476602.04005  90593032.69706                  21781697.991 6

  21707613.100 7 114074408.53607  88889221.89606  21707616.876 6

  20572916.197 6 109781057.30106

  20808390.804 8 111232857.42108  86514487.99908                  20808401.156 8

  25570362.976 5 134373353.77305
  25570367.434 6 100343889.81206  25570365.218 6 102961528.34606
  23063898.600 7 123160038.36007  95791311.21307                  23063904.974 7

                                                                  22599208.943 5

  25203579.507 6 132445879.15506
  25203589.956 7  98904537.52007  25203587.617 8 101484627.73308
 24  1 21 14 47  9.0000000  0 24G20G13E05G11G12E15G05G17R11G22G06R10
                                E03E27E08E30R20G19R06R05E02R09R21E34
  20164765.244 7 105966703.77207  82571551.71507  20164766.554 7

  24308005.909 6 127739447.51106  99537252.22703  24308005.310 3

  24776597.709 6 130201870.15006
  24776610.228 7  97228699.16907  24776607.217 7  99765083.06807
  21737856.705 7 114233362.84707  89013108.07105  21737862.195 5  21737862.772 7

  21483604.106 7 112897152.23707  87971840.81308  21483609.595 8  21483609.877 7

  25155284.663 7 132191989.79507
  25155296.707 7  98714955.83107  25155293.919 7 101290094.18607
  21470190.010 7 112826621.83107  87916888.17508  21470195.128 8  21470195.733 7

  23449891.600 6 123230122.58206  96023550.81406  23449896.277 6  23449896.988 6

  22006351.935 7 117595268.40307  91463041.30907                  22006365.488 7

  23812484.989 5 125135605.22805  97508350.94204  23812484.369 4

  22684008.128 6 119205432.48906  92887462.95707  22684016.752 7  22684017.128 7

  21350723.383 7 113811367.98007

  25764617.232 7 135393997.40507
  25764625.619 7 101106126.23307  25764622.650 8 103743609.07808
  26151610.169 6 137427662.14806
  26151622.934 5 102624600.01405  26151620.536 6 105301745.10206
  28008248.971 5 147184381.26105
  28008254.057 5 109910467.89105  28008254.112 6 112777683.87506
  23983167.259 8 126032453.93608
  23983176.226 8  94115228.55408  23983173.091 8  96570395.96608
  21781722.229 5 116476792.96905  90593181.19806                  21781734.010 6

  21707866.751 7 114075741.89207  88890260.87506  21707870.600 6

  20572346.353 6 109778018.09506

  20808621.846 8 111234092.39808  86515448.53708                  20808632.198 8

  25570895.189 7 134376150.64607
  25570899.784 7 100345978.29907  25570897.523 8 102963671.32208
  23064605.109 7 123163812.93207  95794246.98007                  23064611.559 7

                                                                  22599009.607 5

  25203765.548 6 132446856.88806
  25203776.018 7  98905267.65107  25203773.684 8 101485376.90808
 24  1 21 14 47 10.0000000  0 24G20G13E05G11G12E15G05G17R11G22G06R10
                                E03E27E08E30R20G19R06R05E02R09R21E34
  20164843.673 7 105967116.37307  82571873.31907  20164845.049 7

  24307527.627 6 127736933.16106  99535292.99103  24307526.811 3

  24776513.552 6 130201427.75506
  24776526.025 7  97228368.80607  24776523.060 7  99764744.08107
  21738005.293 7 114234143.47507  89013716.35605  21738010.742 5  21738011.324 7

  21483410.282 7 112896133.56607  87971047.04708  21483415.772 8  21483416.023 7

  25155289.906 6 132192017.65306
  25155302.003 7  98714976.63707  25155299.187 7 101290115.53307
  21469760.672 7 112824365.35307  87915129.87908  21469765.749 8  21469766.361 7

  23450235.924 6 123231932.12206  96024960.84906  23450240.636 6  23450241.262 6

  22006262.503 7 117594791.60307  91462670.45407                  22006276.370 7

  23813143.596 5 125139064.57105  97511046.53704  23813142.668 4

  22684308.118 6 119207008.86406  92888691.30307  22684316.753 7  22684317.099 7

  21351223.672 7 113814034.51807

  25764236.265 6 135391995.37306
  25764244.668 7 101104631.21007  25764241.712 7 103742075.05407
  26151306.407 6 137426066.19706
  26151319.286 5 102623408.23705  26151316.898 6 105300522.22106
  28007834.247 5 147182203.26005
  28007839.752 5 109908841.47305  28007839.570 7 112776015.00707
  23983330.754 8 126033313.11108
  23983339.746 8  94115870.14908  23983336.593 8  96571054.29608
  21781757.738 5 116476983.68705  90593329.58506                  21781769.851 6

  21708120.561 7 114077075.59407  88891300.12206  21708124.387 6

  20571776.628 6 109774979.34606

  20808852.954 8 111235328.12708  86516409.66708                  20808863.407 8

  25571427.486 6 134378947.68106
  25571432.116 7 100348067.08507  25571429.891 7 102965814.58707
  23065311.978 7 123167587.33307  95797182.65607                  23065318.095 7

                                                                  22598811.282 5

  25203951.597 6 132447834.47506
  25203962.031 7  98905997.66907  25203959.693 8 101486125.97908
 24  1 21 14 47 11.0000000  0 24G20G13E05G11G12E15G05G17R11G22G06R10
                                E03E27E08E30R20G19R06R05E02R09R21E34
  20164922.224 7 105967529.36507  82572195.18807  20164923.615 7

  24307048.998 6 127734418.29506  99533333.36803  24307048.209 3

  24776429.375 6 130200985.40706
  24776441.875 7  97228038.47307  24776438.885 7  99764405.13707
  21738153.736 7 114234923.85407  89014324.44705  21738159.240 5  21738159.755 7

  21483216.506 7 112895115.23507  87970253.54808  21483222.008 8  21483222.127 7

  25155295.241 7 132192045.21707
  25155307.235 7  98714997.23107  25155304.388 7 101290136.66707
  21469331.340 7 112822109.06007  87913371.72508  21469336.411 8  21469337.011 7

  23450580.338 6 123233741.69806  96026370.91806  23450585.001 6  23450585.817 6

  22006173.410 7 117594315.25807  91462299.96607                  22006187.126 7

  23813801.859 5 125142523.69605  97513741.96104  23813800.949 4

  22684608.098 6 119208584.87906  92889919.37007  22684616.682 7  22684616.949 7

  21351723.907 7 113816701.18007

  25763855.268 7 135389993.12207
  25763863.683 7 101103136.00407  25763860.704 8 103740540.84908
  26151002.823 6 137424470.35406
  26151015.491 5 102622216.51005  26151013.117 6 105299299.41306
  28007419.507 5 147180024.73805
  28007425.305 5 109907214.66705  28007425.019 7 112774345.74807
  23983494.303 8 126034172.44108
  23983503.275 8  94116511.84808  23983500.115 8  96571712.74008
  21781793.139 5 116477174.09205  90593477.66506                  21781805.617 6

  21708374.295 7 114078409.38407  88892339.43906  21708378.188 6

  20571206.968 6 109771940.80806

  20809084.272 8 111236564.40008  86517371.21408                  20809094.628 8

  25571959.646 6 134381744.42906
  25571964.215 6 100350155.58706  25571962.121 7 102967957.53807
  23066018.785 7 123171361.33807  95800117.98807                  23066024.779 7

                                                                  22598611.664 5

  25204137.525 6 132448811.69006
  25204147.997 7  98906727.40907  25204145.637 8 101486874.75208
 24  1 21 14 47 12.0000000  0 24G20G13E05G11G12E15G05G17R11G22G06R10
                                E03E27E08E30R20G19R06R05E02R09R21E34
  20165001.010 7 105967943.12107  82572517.63907  20165002.320 7

  24306570.481 6 127731903.51206  99531373.80203  24306569.584 3

  24776345.370 6 130200543.73106
  24776357.817 7  97227708.65107  24776354.831 7  99764066.71507
  21738302.293 7 114235704.57907  89014932.81005  21738307.806 5  21738308.389 7

  21483022.867 7 112894097.85407  87969460.78808  21483028.427 8  21483028.599 7

  25155300.586 6 132192073.10406
  25155312.576 7  98715018.07007  25155309.706 7 101290158.04407
  21468902.119 7 112819853.54107  87911614.17508  21468907.220 8  21468907.774 7

  23450924.731 6 123235551.94006  96027781.50006  23450929.481 6  23450930.077 6

  22006084.389 7 117593840.01307  91461930.32407                  22006098.226 7

  23814460.185 6 125145983.23006  97516437.70304  23814459.302 4

  22684908.113 6 119210161.13306  92891147.62107  22684916.657 7  22684916.783 7

  21352224.373 7 113819368.57607

  25763474.322 6 135387991.28006
  25763482.719 7 101101641.11107  25763479.774 7 103739006.95507
  26150699.228 6 137422875.12506
  26150711.889 5 102621025.29105  26150709.476 6 105298077.12806
  28007004.926 5 147177846.31505
  28007010.753 5 109905587.91905  28007010.450 6 112772676.57806
  23983657.996 8 126035032.51508
  23983666.958 8  94117154.11108  23983663.784 8  96572371.75708
  21781829.338 5 116477364.75705  90593625.94306                  21781841.010 6

  21708628.171 7 114079743.88507  88893379.30706  21708632.127 6

  20570637.589 6 109768903.06906

  20809315.776 8 111237801.80408  86518333.64208                  20809326.227 8

  25572492.015 7 134384541.68307
  25572496.461 8 100352244.44108  25572494.402 8 102970100.91208
  23066725.494 7 123175135.52907  95803053.49507                  23066731.358 7

                                                                  22598412.315 5

  25204323.493 6 132449789.10806
  25204334.032 7  98907457.30807  25204331.616 8 101487623.69008
 24  1 21 14 47 13.0000000  0 24G20G13E05G11G12E15G05G17R11G22G06R10
                                E03E27E08E30R20G19R06R05E02R09R21E34
  20165079.800 7 105968357.16807  82572840.30307  20165081.079 7

  24306091.756 6 127729388.21606  99529413.84403  24306090.901 3

  24776261.321 6 130200102.13206
  24776273.790 7  97227378.87107  24776270.803 7  99763728.33307
  21738450.864 7 114236485.04707  89015540.96705  21738456.326 5  21738456.925 7

  21482829.348 7 112893080.81807  87968668.29508  21482834.904 8  21482835.057 7

  25155305.807 6 132192100.71306
  25155317.810 7  98715038.69007  25155314.921 7 101290179.19507
  21468473.017 7 112817598.21307  87909856.77208  21468478.065 8  21468478.619 7

  23451269.202 6 123237362.18806  96029192.09106  23451273.970 6  23451274.259 6

  22005995.582 7 117593365.23107  91461561.04207                  22006009.437 7

  23815118.511 6 125149442.53406  97519133.25804  23815117.591 4

  22685208.047 6 119211736.99106  92892375.56507  22685216.550 7  22685216.729 7

  21352724.743 7 113822036.09407

  25763093.319 6 135385989.21606
  25763101.759 7 101100146.05907  25763098.803 7 103737472.90307
  26150395.600 6 137421280.02206
  26150408.315 5 102619834.13705  26150405.992 6 105296854.90606
  28006590.144 5 147175667.40305
  28006596.102 5 109903960.81605  28006595.818 6 112771007.01406
  23983821.693 8 126035892.72708
  23983830.632 8  94117796.47908  23983827.466 8  96573030.88108
  21781865.337 5 116477554.98905  90593773.90106                  21781876.586 6

  21708882.078 7 114081078.46507  88894419.24006  21708886.079 6

  20570068.396 6 109765865.54106

  20809547.584 8 111239039.73808  86519296.48008                  20809557.841 8

  25573024.365 7 134387338.66207
  25573028.638 7 100354333.03807  25573026.631 8 102972243.99708
  23067432.150 7 123178909.34507  95805988.68907                  23067438.243 7

                                                                  22598213.095 5

  25204509.474 6 132450766.15906
  25204519.996 7  98908186.91807  25204517.562 8 101488372.33608
 24  1 21 14 47 14.0000000  0 24G20G13E05G11G12E15G05G17R11G22G06R10
                                E03E27E08E30R20G19R06R05E02R09R21E34
  20165158.605 7 105968771.97307  82573163.56707  20165159.985 7

  24305612.934 6 127726872.82306  99527453.80603  24305612.134 3

  24776177.305 6 130199660.98606
  24776189.896 7  97227049.44607  24776186.835 7  99763390.31007
  21738599.466 7 114237265.68007  89016149.25605  21738604.882 5  21738605.423 7

  21482635.997 7 112892064.54307  87967876.39608  21482641.529 8  21482641.590 7

  25155311.079 6 132192128.44806
  25155323.105 7  98715059.40907  25155320.205 7 101290200.45507
  21468043.997 7 112815343.50307  87908099.84808  21468049.031 8  21468049.614 7

  23451613.691 6 123239172.90806  96030603.04606  23451618.545 6  23451619.007 6

  22005906.962 7 117592891.34207  91461192.46107                  22005920.875 7

  23815776.532 6 125152902.08106  97521829.01004  23815775.922 4

  22685508.068 6 119213312.91206  92893603.55807  22685516.462 7  22685516.455 7

  21353225.126 7 113824704.17307

  25762712.391 6 135383987.35206
  25762720.858 7 101098651.17407  25762717.842 7 103735939.01107
  26150092.249 6 137419685.39906
  26150104.905 5 102618643.35305  26150102.566 6 105295633.05006
  28006175.560 5 147173488.36205
  28006181.473 5 109902333.62405  28006181.126 6 112769337.38806
  23983985.531 8 126036753.50808
  23983994.443 8  94118439.27308  23983991.256 8  96573690.43808
  21781901.076 5 116477745.26705  90593921.90106                  21781912.194 6

  21709136.112 7 114082413.57807  88895459.58506  21709140.139 6

  20569499.121 6 109762828.68006

  20809779.395 8 111240278.65608  86520260.08108                  20809789.590 8

  25573556.735 7 134390135.87107
  25573560.941 7 100356421.82007  25573558.895 8 102974387.28208
  23068138.721 7 123182683.14707  95808923.86807                  23068144.891 7

                                                                  22598013.356 5

  25204695.484 6 132451743.22106
  25204705.974 7  98908916.55907  25204703.484 8 101489121.00608
 24  1 21 14 47 15.0000000  0 24G20G13E05G11G12E15G05G17R11G22G06R10
                                E03E27E08E30R20G19R06R05E02R09R21E34
  20165237.558 8 105969187.10208  82573487.12207  20165238.963 7

  24305134.101 6 127724357.15906  99525493.55103  24305133.330 3

  24776093.420 6 130199220.16406
  24776105.995 7  97226720.25007  24776102.966 7  99763052.53007
  21738747.992 7 114238046.32007  89016757.55005  21738753.439 5  21738753.901 7

  21482442.681 7 112891048.86307  87967084.96108  21482448.265 8  21482448.317 7

  25155316.336 6 132192156.15306
  25155328.341 7  98715080.09707  25155325.457 7 101290221.69007
  21467615.015 7 112813089.23607  87906343.27408  21467620.081 8  21467620.569 7

  23451958.028 6 123240983.91606  96032014.22606  23451963.177 6  23451963.549 6

  22005818.503 7 117592418.16507  91460824.43507                  22005832.397 7

  23816435.015 6 125156361.68706  97524524.80704  23816434.256 4

  22685808.077 6 119214888.72206  92894831.46607  22685816.356 7  22685816.323 7

  21353725.735 7 113827372.62507

  25762331.475 6 135381985.55806
  25762339.869 7 101097156.30007  25762336.923 7 103734405.15107
  26149788.977 6 137418091.11006
  26149801.465 5 102617452.80405  26149799.101 6 105294411.44306
  28005760.636 5 147171309.11605
  28005766.712 5 109900706.27205  28005766.395 6 112767667.56806
  23984149.418 8 126037614.68308
  23984158.313 8  94119082.35208  23984155.125 8  96574350.30008
  21781936.389 5 116477935.42805  90594069.81106                  21781947.685 6

  21709390.283 7 114083749.02507  88896500.19206  21709394.266 6

  20568930.097 6 109759792.27206

  20810011.434 8 111241518.37608  86521224.31708                  20810021.405 8

  25574089.139 6 134392933.16206
  25574093.196 7 100358510.60207  25574091.182 7 102976530.57707
  23068845.508 7 123186456.77707  95811858.93807                  23068851.675 7

                                                                  22597815.492 5

  25204881.377 6 132452720.17006
  25204891.888 7  98909646.09807  25204889.396 8 101489869.57708
 24  1 21 14 47 16.0000000  0 24G20G13E05G11G12E15G05G17R11G22G06R10
                                E03E27E08E30R20G19R06R05E02R09R21E34
  20165316.630 7 105969603.10807  82573811.34107  20165318.093 7

  24304655.209 6 127721841.63106  99523533.40303  24304654.621 3

  24776009.652 6 130198780.04506
  24776022.298 7  97226391.58707  24776019.211 7  99762715.29007
  21738896.598 7 114238827.33907  89017366.14005  21738902.066 5  21738902.463 7

  21482249.614 7 112890034.17507  87966294.29908  21482255.185 8  21482255.180 7

  25155321.632 6 132192184.22606
  25155333.655 7  98715101.06907  25155330.843 7 101290243.20507
  21467186.181 7 112810835.79407  87904587.33908  21467191.293 8  21467191.789 7

  23452302.825 6 123242795.60306  96033425.93806  23452307.935 6  23452308.419 6

  22005730.232 7 117591946.09807  91460457.27407                  22005744.045 7

  23817093.525 6 125159821.70306  97527220.92004  23817092.676 4

  22686108.096 6 119216464.79306  92896059.57807  22686116.290 7  22686116.340 7

  21354226.421 7 113830041.85907

  25761950.631 6 135379984.17706
  25761959.016 7 101095661.76607  25761956.110 8 103732871.62808
  26149485.757 6 137416497.53006
  26149498.181 5 102616262.77205  26149495.749 6 105293190.39706
  28005346.016 5 147169129.98505
  28005352.028 5 109899079.00505  28005351.713 6 112765997.85806
  23984313.459 8 126038476.64708
  23984322.365 8  94119726.02508  23984319.148 8  96575010.76308
  21781971.191 5 116478125.84205  90594217.91306                  21781983.015 6

  21709644.453 7 114085085.22307  88897541.38306  21709648.518 6

  20568361.032 6 109756756.77106

  20810243.454 8 111242759.30508  86522189.48508                  20810253.543 8

  25574621.551 7 134395730.94207
  25574625.618 7 100360599.75407  25574623.640 8 102978674.23708
  23069552.102 7 123190230.66507  95814794.19307                  23069558.473 7

                                                                  22597616.419 4

  25205067.355 6 132453697.37006
  25205077.832 7  98910375.82807  25205075.353 8 101490618.34008
 24  1 21 14 47 17.0000000  0 24G20G13E05G11G12E15G05G17R11G22G06R10
                                E03E27E08E30R20G19R06R05E02R09R21E34
  20165395.730 7 105970019.82707  82574136.09507  20165397.366 7

  24304176.253 6 127719325.98506  99521573.16803  24304175.813 3

  24775926.015 6 130198340.37506
  24775938.630 7  97226063.25707  24775935.515 7  99762378.39707
  21739045.243 7 114239608.50507  89017974.84405  21739050.708 5  21739051.094 7

  21482056.722 7 112889020.21307  87965504.20308  21482062.239 8  21482062.103 7

  25155326.994 6 132192212.39106
  25155339.053 7  98715122.10707  25155336.172 7 101290264.79807
  21466757.441 7 112808582.93907  87902831.86508  21466762.612 8  21466763.140 7

  23452647.594 6 123244607.70506  96034837.97106  23452652.768 6  23452653.431 6

  22005642.232 7 117591474.91907  91460090.79707                  22005655.791 7

  23817752.152 6 125163281.92206  97529917.18904  23817751.136 4

  22686407.936 6 119218040.88206  92897287.70207  22686416.229 7  22686416.251 7

  21354727.183 7 113832711.61307

  25761569.812 7 135377982.96807
  25761578.215 7 101094167.35007  25761575.300 8 103731338.23008
  26149182.596 6 137414904.40606
  26149195.113 5 102615073.12305  26149192.460 6 105291969.69106
  28004931.274 5 147166950.74905
  28004937.367 5 109897451.65005  28004936.987 6 112764328.06306
  23984477.573 8 126039339.14008
  23984486.481 8  94120370.10108  23984483.281 8  96575671.63908
  21782007.257 5 116478316.24805  90594366.03206                  21782018.670 6

  21709898.823 7 114086421.90107  88898582.94906  21709902.872 6

  20567792.554 6 109753721.88306

  20810475.829 8 111244001.17308  86523155.38608                  20810485.908 8

  25575154.074 7 134398528.94507
  25575158.210 6 100362689.15506  25575156.158 7 102980818.06007
  23070258.976 7 123194004.53907  95817729.44307                  23070265.324 7

                                                                  22597418.827 4

  25205253.447 6 132454674.56806
  25205263.783 7  98911105.55707  25205261.339 8 101491367.11208
 24  1 21 14 47 18.0000000  0 24G20G13E05G11G12E15G05G17R11G22G06R10
                                E03E27E08E30R20G19R06R05E02R09R21E34
  20165474.976 7 105970436.80507  82574461.08307  20165476.692 7

  24303697.412 6 127716809.82806  99519612.53103  24303696.987 3

  24775842.327 6 130197900.78706
  24775855.004 7  97225734.98607  24775851.847 7  99762041.56207
  21739193.909 7 114240389.41307  89018583.34705  21739199.304 5  21739199.742 7

  21481863.811 7 112888006.60907  87964714.38508  21481869.365 8  21481869.164 7

  25155332.384 6 132192240.28806
  25155344.368 7  98715142.95007  25155341.494 7 101290286.17807
  21466328.782 7 112806330.27107  87901076.54008  21466333.967 8  21466334.389 7

  23452992.336 6 123246419.84206  96036250.03106  23452997.611 6  23452998.303 6

  22005554.017 7 117591004.21407  91459724.68507                  22005567.597 7

  23818410.397 6 125166741.94106  97532613.30504  23818409.578 4

  22686707.553 6 119219616.61006  92898515.54607  22686716.100 7  22686716.181 7

  21355227.863 7 113835381.49107

  25761188.998 6 135375981.58206
  25761197.371 7 101092672.78907  25761194.467 8 103729804.68108
  26148879.476 6 137413311.39006
  26148891.963 5 102613883.54405  26148889.345 6 105290749.06606
  28004516.389 5 147164771.01105
  28004522.465 5 109895823.92605  28004522.186 6 112762657.87206
  23984641.712 8 126040201.78908
  23984650.664 8  94121014.28208  23984647.454 8  96576332.62908
  21782042.750 5 116478506.32805  90594513.84606                  21782054.009 6

  21710153.168 7 114087758.69207  88899624.60306  21710157.250 6

  20567223.919 6 109750687.14006

  20810708.306 8 111245243.57208  86524121.69708                  20810718.394 8

  25575686.521 6 134401326.74906
  25575690.603 7 100364778.30307  25575688.633 7 102982961.80807
  23070965.588 7 123197778.01207  95820664.35807                  23070971.802 7

                                                                  22597220.296 4

  25205439.368 6 132455651.39806
  25205449.672 7  98911835.00407  25205447.204 8 101492115.59008
 24  1 21 14 47 19.0000000  0 24G20G13E05G11G12E15G05G17R11G22G06R10
                                E03E27E08E30R20G19R06R05E02R09R21E34
  20165554.419 7 105970854.36607  82574786.51507  20165556.126 7

  24303218.647 6 127714293.50106  99517651.75603  24303218.121 3

  24775758.768 6 130197461.61506
  24775771.416 7  97225407.01907  24775768.236 7  99761705.04607
  21739342.499 7 114241170.41407  89019191.92505  21739347.927 5  21739348.293 7

  21481671.087 7 112886993.68307  87963925.09508  21481676.615 8  21481676.409 7

  25155337.635 6 132192268.24406
  25155349.723 7  98715163.82407  25155346.814 7 101290307.60407
  21465900.247 7 112804078.14907  87899321.63808  21465905.424 8  21465905.738 7

  23453337.253 6 123248232.36506  96037662.39506  23453342.534 6  23453343.369 6

  22005466.072 7 117590534.31907  91459359.20207                  22005479.524 7

  23819068.563 6 125170202.09306  97535309.53204  23819068.042 4

  22687007.326 6 119221192.31006  92899743.36807  22687015.967 7  22687016.211 7

  21355728.957 7 113838051.84007

  25760808.081 6 135373980.31006
  25760816.510 7 101091178.32907  25760813.690 7 103728271.23907
  26148576.442 6 137411718.77906
  26148588.863 5 102612694.24705  26148586.385 6 105289528.75106
  28004101.538 5 147162591.12805
  28004107.702 5 109894196.10105  28004107.368 6 112760987.57706
  23984805.925 8 126041064.93308
  23984814.900 8  94121658.83908  23984811.714 8  96576993.99508
  21782078.358 5 116478696.37205  90594661.65306                  21782089.527 6

  21710407.663 7 114089095.90907  88900666.58906  21710411.689 6

  20566655.188 6 109747653.00406

  20810941.045 8 111246486.84308  86525088.69608                  20810950.938 8

  25576219.071 6 134404124.80206
  25576223.188 6 100366867.71606  25576221.202 7 102985105.72707
  23071672.326 7 123201551.42107  95823599.24407                  23071678.547 7

                                                                  22597022.087 5

  25205625.270 6 132456628.18606
  25205635.536 7  98912564.43207  25205633.068 8 101492864.03808
 24  1 21 14 47 20.0000000  0 24G20G13E05G11G12E15G05G17R11G22G06R10
                                E03E27E08E30R20G19R06R05E02R09R21E34
  20165633.866 8 105971272.39708  82575112.35907  20165635.650 7

  24302739.986 6 127711777.00206  99515690.83903  24302739.210 3

  24775675.243 6 130197022.84206
  24775687.928 7  97225079.36907  24775684.737 7  99761368.84807
  21739490.995 7 114241951.52407  89019800.58905  21739496.564 5  21739496.966 7

  21481478.484 7 112885981.46007  87963136.35408  21481483.996 8  21481483.824 7

  25155343.077 6 132192296.26906
  25155355.005 7  98715184.77507  25155352.149 7 101290329.08907
  21465471.767 7 112801826.56407  87897567.15308  21465476.985 8  21465477.227 7

  23453682.257 6 123250045.26706  96039075.04806  23453687.533 6  23453688.298 6

  22005378.054 7 117590065.24207  91458994.36007                  22005391.675 7

  23819727.092 6 125173662.41506  97538005.89504  23819726.511 4

  22687307.214 6 119222767.99606  92900971.17507  22687315.830 7  22687315.991 7

  21356229.917 7 113840722.66807

  25760427.237 6 135371979.20206
  25760435.710 7 101089683.98607  25760432.896 8 103726737.91508
  26148273.360 6 137410126.58506
  26148285.859 5 102611505.28705  26148283.330 6 105288308.76506
  28003686.683 5 147160411.07505
  28003692.772 5 109892568.16905  28003692.505 6 112759317.16206
  23984970.236 8 126041928.56808
  23984979.216 8  94122303.75908  23984976.043 8  96577655.74208
  21782114.090 5 116478886.36305  90594809.44006                  21782125.177 6

  21710662.183 7 114090433.60307  88901708.94606  21710666.228 6

  20566086.552 6 109744619.46806

  20811173.650 8 111247731.00408  86526056.37208                  20811183.747 8

  25576751.566 5 134406923.33705
  25576755.810 6 100368956.68206  25576753.869 6 102987250.17606
  23072378.972 7 123205324.79507  95826534.09107                  23072385.179 7

                                                                  22596824.263 5

  25205811.245 6 132457604.94406
  25205821.437 7  98913293.82407  25205818.970 8 101493612.46308
 24  1 21 14 47 21.0000000  0 24G20G13E05G11G12E15G05G17R11G22G06R10
                                E03E27E08E30R20G19R06R05E02R09R21E34
  20165713.352 7 105971690.83707  82575438.49907  20165715.236 7

  24302261.101 6 127709260.26806  99513729.74903  24302260.268 3

  24775591.869 6 130196584.38806
  24775604.517 7  97224751.94807  24775601.277 7  99761032.88607
  21739639.602 7 114242732.62507  89020409.24305  21739645.196 5  21739645.684 7

  21481285.970 7 112884969.82507  87962348.06808  21481291.484 8  21481291.312 7

  25155348.402 6 132192324.25906
  25155360.359 7  98715205.67407  25155357.457 7 101290350.54107
  21465043.425 7 112799575.43407  87895813.02308  21465048.626 8  21465048.861 7

  23454027.205 6 123251858.47906  96040487.94806  23454032.586 6  23454033.610 6

  22005290.286 7 117589596.89507  91458630.09607                  22005304.053 7

  23820385.543 6 125177122.75506  97540702.27204  23820385.002 4

  22687607.063 6 119224343.56106  92902198.89307  22687615.665 7  22687615.887 7

  21356730.947 7 113843393.85507

  25760046.406 6 135369978.13606
  25760054.946 7 101088189.70207  25760052.136 7 103725204.64207
  26147970.611 6 137408534.71806
  26147983.019 5 102610316.56905  26147980.304 6 105287089.01906
  28003271.590 5 147158230.78605
  28003277.875 5 109890940.04205  28003277.588 6 112757646.56906
  23985134.630 8 126042792.59808
  23985143.652 8  94122948.97508  23985140.461 8  96578317.79208
  21782148.923 5 116479076.25005  90594957.11006                  21782160.378 6

  21710916.864 7 114091771.62207  88902751.55606  21710920.837 6

  20565518.255 6 109741586.38306

  20811406.390 8 111248975.95908  86527024.67608                  20811416.733 8

  25577284.017 7 134409721.74807
  25577288.406 7 100371046.33507  25577286.398 8 102989394.36908
  23073085.449 7 123209097.99407  95829468.81007                  23073091.734 7

                                                                  22596626.241 5

  25205997.186 6 132458581.54806
  25206007.309 7  98914023.12407  25206004.830 8 101494360.78008
 24  1 21 14 47 22.0000000  0 24G20G13E05G11G12E15G05G17R11G22G06R10
                                E03E27E08E30R20G19R06R05E02R09R21E34
  20165792.998 7 105972109.45207  82575764.76007  20165794.835 7

  24301782.040 6 127706743.00706  99511768.24803  24301781.254 3

  24775508.384 6 130196146.01006
  24775521.118 7  97224424.58007  24775517.853 7  99760696.97707
  21739788.296 7 114243513.47407  89021017.70105  21739793.784 5  21739794.289 7

  21481093.477 7 112883958.52907  87961560.05008  21481099.043 8  21481099.017 7

  25155353.730 7 132192351.97007
  25155365.549 7  98715226.37307  25155362.741 7 101290371.77807
  21464615.122 7 112797324.48007  87894059.03408  21464620.302 8  21464620.458 7

  23454372.359 6 123253671.70406  96041900.85806  23454377.643 6  23454378.609 6

  22005202.553 7 117589128.99207  91458266.17107                  22005216.561 7

  23821044.338 6 125180582.90806  97543398.49304  23821043.480 4

  22687906.904 6 119225918.74206  92903426.31107  22687915.430 7  22687915.668 7

  21357231.823 7 113846065.18207

  25759665.568 6 135367976.86406
  25759674.125 7 101086695.23207  25759671.312 8 103723671.19108
  26147667.906 6 137406942.94006
  26147680.037 5 102609127.89605  26147677.383 6 105285869.34406
  28002856.632 5 147156049.97505
  28002862.914 5 109889311.52105  28002862.636 6 112755975.57206
  23985299.040 8 126043656.77508
  23985308.097 8  94123594.29908  23985304.933 8  96578979.95008
  21782184.345 5 116479265.71905  90595104.49306                  21782195.418 6

  21711171.602 7 114093109.74407  88903794.24706  21711175.447 6

  20564949.545 6 109738553.54706

  20811639.356 8 111250221.45708  86527993.40408                  20811649.642 8

  25577816.456 7 134412520.06107
  25577820.921 7 100373135.93107  25577818.915 8 102991538.49308
  23073791.573 7 123212870.76807  95832403.19607                  23073798.417 7

  22596355.793 5                                                  22596429.682 4

  25206182.905 6 132459557.78406
  25206193.079 7  98914752.12607  25206190.621 8 101495108.80608
